Latitude,Longitude,Time Stamp(s),Yaw(degrees),Pitch(degrees),Roll(degrees)
34.1066485,-117.71239916666667,2083000,359.4076864848982,0.0000,0.0000,
34.1066485,-117.71239916666667,2083000,358.6922284096104,0.0000,0.0000,
34.1066485,-117.71239916666667,2083000,0.5548853021492732,-1.4375,0.3125,
34.1066485,-117.71239916666667,2083000,358.7260905434541,-1.4375,0.3125,
34.1066485,-117.71239916666667,2083000,358.67653885759455,-1.4375,0.3125,
34.1066485,-117.71239916666667,2083000,358.8577250658491,-1.4375,0.3125,
34.1066485,-117.71239916666667,2083000,357.7072653929488,-1.4375,0.3125,
34.1066485,-117.71239916666667,2083000,358.6805976699927,-1.4375,0.3125,
34.1066485,-117.71239916666667,2083000,1.2915132532357347,-1.4375,0.3125,
34.1066485,-117.71239916666667,2083000,2.2409328313708556,-1.4375,0.3125,
34.1066485,-117.71239916666667,2083000,359.35831980884245,-1.4375,0.3125,
34.1066485,-117.71239916666667,2083000,0.6312378424963754,-1.4375,0.3125,
34.1066485,-117.71239916666667,2083000,359.9156568102128,-1.4375,0.3125,
34.1066485,-117.71239916666667,2084000,1.1786593085671484,-1.4375,0.3125,
34.1066485,-117.71239916666667,2084000,358.47685707122287,-1.4375,0.3125,
34.1066485,-117.71239916666667,2084000,359.486135687348,-1.4375,0.3125,
34.1066485,-117.71239916666667,2084000,359.1293718675274,-1.4375,0.3125,
34.1066485,-117.71239916666667,2084000,359.9271143873036,-1.4375,0.3125,
34.1066485,-117.71239916666667,2084000,359.325842885366,-1.4375,0.3125,
34.1066485,-117.71239916666667,2084000,359.903912410442,-1.4375,0.3125,
34.1066485,-117.71239916666667,2084000,0.43722196950602665,-1.4375,0.3125,
34.1066485,-117.71239916666667,2084000,359.45480330127634,-1.4375,0.3125,
34.1066485,-117.71239916666667,2084000,359.9640343935773,-1.4375,0.3125,
34.1066485,-117.71239916666667,2084000,358.0605289164009,-1.4375,0.3125,
34.1066485,-117.71239916666667,2084000,1.4428192152948895,-1.4375,0.3125,
34.1066485,-117.71239916666667,2084000,0.9002914642055657,-1.4375,0.3125,
34.106648666666665,-117.71239983333334,2085000,359.26913753932,-1.4375,0.3125,
34.106648666666665,-117.71239983333334,2085000,1.184510133208505,-1.4375,0.3125,
34.106648666666665,-117.71239983333334,2085000,358.7364481854222,-1.4375,0.3125,
34.106648666666665,-117.71239983333334,2085000,358.87696059013433,-1.4375,0.3125,
34.106648666666665,-117.71239983333334,2085000,0.10727490815293095,-1.4375,0.3125,
34.106648666666665,-117.71239983333334,2085000,1.4526547116180382,-1.4375,0.3125,
34.106648666666665,-117.71239983333334,2085000,0.446403523074423,-1.4375,0.3125,
34.106648666666665,-117.71239983333334,2085000,0.24445127120350207,-1.4375,0.3125,
34.106648666666665,-117.71239983333334,2085000,359.20998039711526,-1.4375,0.3125,
34.106648666666665,-117.71239983333334,2085000,1.2367779693389593,-1.4375,0.3125,
34.106648666666665,-117.71239983333334,2085000,0.8198393608391825,-1.4375,0.3125,
34.106648666666665,-117.71239983333334,2085000,357.1493539435892,-1.4375,0.3125,
34.106648666666665,-117.71239983333334,2085000,359.61064507789513,-1.4375,0.3125,
34.106648666666665,-117.71239983333334,2085000,358.98882422893905,-1.4375,0.3125,
34.106648666666665,-117.71239983333334,2085000,0.9291799156304705,-1.4375,0.3125,
34.106648666666665,-117.71239983333334,2085000,1.154462440063753,-1.4375,0.3125,
34.106648666666665,-117.71239983333334,2085000,1.4588821113434278,-1.4375,0.3125,
34.106648666666665,-117.71239983333334,2085000,359.2876610105359,-1.4375,0.3125,
34.106648666666665,-117.71239983333334,2085000,2.16893276344922,-1.4375,0.3125,
34.106648666666665,-117.71239983333334,2085000,357.50539185710727,-1.4375,0.3125,
34.106648666666665,-117.71239983333334,2085000,358.97894884239304,-1.4375,0.3125,
34.106648666666665,-117.71239983333334,2085000,1.1712744151034258,-1.4375,0.3125,
34.106648666666665,-117.71239983333334,2085000,0.506071701763176,-1.4375,0.3125,
34.106648666666665,-117.71239983333334,2085000,359.3698150733179,-1.4375,0.3125,
34.106648666666665,-117.71239983333334,2085000,0.7547826318836997,-1.4375,0.3125,
34.106648666666665,-117.71239983333334,2085000,359.29374230882377,-1.4375,0.3125,
34.106648666666665,-117.71239983333334,2085000,0.6910682250818354,-1.4375,0.3125,
34.106648666666665,-117.71239983333334,2085000,2.8886342983953455,-1.4375,0.3125,
34.10664883333333,-117.7124005,2086000,358.29403212578654,-1.4375,0.3125,
34.10664883333333,-117.7124005,2086000,0.9624492329174927,-1.4375,0.3125,
34.10664883333333,-117.7124005,2086000,359.9480810774379,-1.4375,0.3125,
34.10664883333333,-117.7124005,2086000,358.46013911448813,-1.4375,0.3125,
34.10664883333333,-117.7124005,2086000,2.9586528089040485,-1.4375,0.3125,
34.10664883333333,-117.7124005,2086000,2.6802591294183458,-1.4375,0.3125,
34.10664883333333,-117.7124005,2086000,359.9232460784799,-1.4375,0.3125,
34.10664883333333,-117.7124005,2086000,359.86964523317795,-1.4375,0.3125,
34.10664883333333,-117.7124005,2086000,359.8086760068269,-1.4375,0.3125,
34.10664883333333,-117.7124005,2086000,1.0029754319323274,-1.4375,0.3125,
34.10664883333333,-117.7124005,2086000,359.7824603978381,-1.4375,0.3125,
34.10664883333333,-117.7124005,2086000,359.1635924418672,-1.4375,0.3125,
34.10664883333333,-117.7124005,2086000,0.7607913550008334,-1.4375,0.3125,
34.10664883333333,-117.7124005,2086000,358.98439932865085,-1.4375,0.3125,
34.10664883333333,-117.7124005,2086000,359.6702575152807,-1.4375,0.3125,
34.10664883333333,-117.7124005,2086000,0.22699078316168197,-1.4375,0.3750,
34.10664883333333,-117.7124005,2086000,358.73846046270694,-1.4375,0.3750,
34.10664883333333,-117.7124005,2086000,359.17717838169017,-1.3750,0.3750,
34.10664883333333,-117.7124005,2086000,1.0664488263242902,-1.3750,0.3750,
34.10664883333333,-117.7124005,2086000,358.3088917136971,-1.3750,0.3750,
34.10664883333333,-117.7124005,2086000,359.5518031605145,-1.3750,0.3125,
34.10664883333333,-117.7124005,2086000,359.0179653981529,-1.3750,0.3750,
34.10664883333333,-117.7124005,2086000,358.40755557618786,-1.3750,0.3125,
34.10664883333333,-117.7124005,2086000,358.0259911590116,-1.3125,0.3125,
34.10664883333333,-117.7124005,2086000,359.1803789045414,-1.3125,0.3125,
34.10664883333333,-117.7124005,2086000,0.10006227599842532,-1.3125,0.3125,
34.10664883333333,-117.7124005,2086000,356.81794932758453,-1.1875,0.2500,
34.10664883333333,-117.7124005,2086000,358.0283755420852,-1.0625,0.2500,
34.10664883333333,-117.7124005,2086000,356.7907369680365,-1.0625,0.2500,
34.10664883333333,-117.7124005,2086000,355.2316891818323,-1.0625,0.2500,
34.10664883333333,-117.7124005,2086000,355.5020663474261,-1.0625,0.2500,
34.10664883333333,-117.7124005,2086000,355.7693938079037,-1.0625,0.2500,
34.10664883333333,-117.7124005,2086000,355.0863213314436,-1.0625,0.2500,
34.10664883333333,-117.7124005,2086000,353.70349489101216,-1.0625,0.1875,
34.10664883333333,-117.7124005,2086000,353.2147690382967,-1.0625,0.1875,
34.10664883333333,-117.7124005,2086000,353.8513063231335,-1.0625,0.1875,
34.10664883333333,-117.7124005,2086000,349.90307893427905,-1.0625,0.1250,
34.10664883333333,-117.7124005,2086000,349.6386204371197,-1.0625,0.1875,
34.10664883333333,-117.7124005,2086000,350.74470437849004,-1.0000,0.1875,
34.10664883333333,-117.71240066666667,2087000,347.6666414050162,-1.0000,0.1250,
34.10664883333333,-117.71240066666667,2087000,344.8541296626763,-1.0000,0.1250,
34.10664883333333,-117.71240066666667,2087000,344.4410384822245,-0.9375,0.1250,
34.10664883333333,-117.71240066666667,2087000,343.05527709426633,-0.9375,0.1250,
34.10664883333333,-117.71240066666667,2087000,343.44793437501926,-0.9375,0.1875,
34.10664883333333,-117.71240066666667,2087000,341.4507611567378,-0.9375,0.1250,
34.10664883333333,-117.71240066666667,2087000,341.4149693917499,-0.8750,0.1250,
34.10664883333333,-117.71240066666667,2087000,341.3859402648184,-0.8750,0.1250,
34.10664883333333,-117.71240066666667,2087000,338.10668024471056,-0.8750,0.0625,
34.10664883333333,-117.71240066666667,2087000,338.45233476851877,-0.8125,0.0625,
34.10664883333333,-117.71240066666667,2087000,334.9992569246756,-0.8125,0.1250,
34.10664883333333,-117.71240066666667,2087000,334.9748924668912,-0.8125,0.0625,
34.10664883333333,-117.71240066666667,2087000,336.4812270682087,-0.7500,0.0625,
34.10664883333333,-117.71240066666667,2087000,327.6309108438222,-0.7500,0.0625,
34.10664883333333,-117.71240066666667,2087000,331.0076630948679,-0.7500,0.0625,
34.10664883333333,-117.71240066666667,2087000,329.9110549927997,-0.7500,0.1250,
34.10664883333333,-117.71240066666667,2087000,328.92329148228373,-0.7500,0.1250,
34.10664883333333,-117.71240066666667,2087000,330.28771466067633,-0.7500,0.1875,
34.10664883333333,-117.71240066666667,2087000,328.5676937828081,-0.7500,0.1250,
34.10664883333333,-117.71240066666667,2087000,329.2965308778122,-0.7500,0.1250,
34.10664883333333,-117.71240066666667,2087000,326.39276485032576,-0.7500,0.1875,
34.10664883333333,-117.71240066666667,2087000,324.07658104279017,-0.6875,0.1250,
34.10664883333333,-117.71240066666667,2087000,323.28481604177273,-0.6875,0.1875,
34.10664883333333,-117.71240066666667,2087000,322.61524008632387,-0.6250,0.1875,
34.10664883333333,-117.71240066666667,2087000,321.3699753947915,-0.6250,0.0625,
34.10664883333333,-117.71240066666667,2087000,320.0054550116022,-0.6250,0.0625,
34.10664883333333,-117.71240066666667,2087000,318.3359024696201,-0.5625,0.0625,
34.10664883333333,-117.71240066666667,2087000,317.14865095240225,-0.5625,0.1250,
34.10664883333333,-117.71240066666667,2087000,318.9554356378394,-0.5000,0.0625,
34.10664883333333,-117.71240066666667,2087000,316.5012335915974,-0.5000,0.0625,
34.10664883333333,-117.71240066666667,2087000,313.4290367017927,-0.4375,0.0625,
34.10664883333333,-117.71240066666667,2087000,315.23446819093215,-0.3750,0.0000,
34.10664883333333,-117.71240066666667,2087000,312.2872179582779,-0.3125,0.0625,
34.10664883333333,-117.71240066666667,2087000,312.68127907177654,-0.3125,0.1250,
34.10664883333333,-117.71240066666667,2087000,311.2867838267998,-0.2500,0.0625,
34.10664883333333,-117.71240066666667,2087000,311.7588723492354,-0.1875,0.1875,
34.10664883333333,-117.71240066666667,2087000,311.6947497684888,-0.1875,0.1250,
34.10664883333333,-117.71240066666667,2087000,309.7559955819672,-0.1875,0.1875,
34.10665266666667,-117.71240016666667,2088000,308.87016967683314,-0.1875,0.1875,
34.10665266666667,-117.71240016666667,2088000,309.9727989368165,-0.1875,0.2500,
34.10665266666667,-117.71240016666667,2088000,306.73840444329585,-0.1250,0.2500,
34.10665266666667,-117.71240016666667,2088000,306.9911081362761,-0.1875,0.1875,
34.10665266666667,-117.71240016666667,2088000,305.3425841377432,-0.1250,0.1875,
34.10665266666667,-117.71240016666667,2088000,305.95811438146643,-0.1250,0.1250,
34.10665266666667,-117.71240016666667,2088000,307.2716980980201,-0.1250,0.1875,
34.10665266666667,-117.71240016666667,2088000,306.52979338502075,-0.1250,0.1875,
34.10665266666667,-117.71240016666667,2088000,305.65690091134104,-0.0625,0.2500,
34.10665266666667,-117.71240016666667,2088000,301.6794110001231,-0.0625,0.3750,
34.10665266666667,-117.71240016666667,2088000,303.809753343131,0.0625,-0.1875,
34.10665266666667,-117.71240016666667,2088000,301.0340585770748,0.0625,-0.1250,
34.10665266666667,-117.71240016666667,2088000,303.0570584836398,0.0625,0.4375,
34.10665266666667,-117.71240016666667,2088000,301.91348627909747,0.1875,0.8750,
34.10665266666667,-117.71240016666667,2088000,299.43396100124664,0.1875,0.2500,
34.10665266666667,-117.71240016666667,2088000,295.79763751772316,0.1875,0.2500,
34.10665266666667,-117.71240016666667,2088000,299.69247650984266,0.1875,0.6250,
34.10665266666667,-117.71240016666667,2088000,298.56807044098787,0.1875,0.8125,
34.10665266666667,-117.71240016666667,2088000,298.53635698695007,0.1250,0.8125,
34.10665266666667,-117.71240016666667,2088000,298.79630366081983,0.0625,0.8125,
34.10665266666667,-117.71240016666667,2088000,298.76600065956643,0.0625,0.8125,
34.10665266666667,-117.71240016666667,2088000,296.1814908078784,0.0625,0.8750,
34.10665266666667,-117.71240016666667,2088000,295.18592626964073,0.0625,0.8125,
34.10665266666667,-117.71240016666667,2088000,295.8188104261187,0.1250,0.8125,
34.10665266666667,-117.71240016666667,2088000,294.5792593883573,0.1250,1.0000,
34.10665266666667,-117.71240016666667,2088000,298.36147755825186,0.1250,1.0000,
34.10665266666667,-117.71240016666667,2088000,294.3783216088085,0.1250,1.0625,
34.10665266666667,-117.71240016666667,2088000,292.65440845171565,0.1250,1.0625,
34.10665266666667,-117.71240016666667,2088000,294.94618478298185,0.1875,1.0625,
34.10665266666667,-117.71240016666667,2088000,294.10133560418944,0.2500,1.1250,
34.10665266666667,-117.71240016666667,2088000,291.9926504387597,0.1875,1.2500,
34.10665266666667,-117.71240016666667,2088000,293.446816979432,0.2500,1.1875,
34.10665266666667,-117.71240016666667,2088000,294.95188909000956,0.3125,1.1250,
34.10665266666667,-117.71240016666667,2088000,291.8699454546511,0.2500,1.1250,
34.10665266666667,-117.71240016666667,2088000,294.2801479796092,0.2500,1.2500,
34.10665266666667,-117.71240016666667,2088000,294.43983155729234,0.3125,1.2500,
34.10665266666667,-117.71240016666667,2088000,292.25728081993293,0.4375,1.1875,
34.10665266666667,-117.71240016666667,2088000,294.6343780142073,0.5000,1.3125,
34.10665733333333,-117.71239933333334,2089000,291.38336999450587,0.4375,1.3750,
34.10665733333333,-117.71239933333334,2089000,292.76576065248037,0.5000,1.5000,
34.10665733333333,-117.71239933333334,2089000,292.50773418333733,0.4375,1.2500,
34.10665733333333,-117.71239933333334,2089000,291.2490900477411,0.4375,1.1250,
34.10665733333333,-117.71239933333334,2089000,291.8072833759311,0.3125,1.5000,
34.10665733333333,-117.71239933333334,2089000,290.8451843545172,0.2500,1.5625,
34.10665733333333,-117.71239933333334,2089000,291.55048903700185,0.3125,1.4375,
34.10665733333333,-117.71239933333334,2089000,291.88459191792595,0.3125,1.2500,
34.10665733333333,-117.71239933333334,2089000,290.994745656772,0.3125,1.2500,
34.10665733333333,-117.71239933333334,2089000,290.40512687004025,0.3125,1.1875,
34.10665733333333,-117.71239933333334,2089000,293.54112971702057,0.3750,1.1250,
34.10665733333333,-117.71239933333334,2089000,289.2413230216898,0.4375,0.8750,
34.10665733333333,-117.71239933333334,2089000,288.01319602720685,0.3750,0.8125,
34.10665733333333,-117.71239933333334,2089000,288.58658277101677,0.4375,0.6250,
34.10665733333333,-117.71239933333334,2089000,290.1702279307151,0.5000,0.6875,
34.10665733333333,-117.71239933333334,2089000,291.5540529683169,0.5000,0.4375,
34.10665733333333,-117.71239933333334,2089000,287.54087743862374,0.5000,0.3750,
34.10665733333333,-117.71239933333334,2089000,288.46438761736226,0.5000,0.2500,
34.10665733333333,-117.71239933333334,2089000,288.0176882258802,0.5000,0.1875,
34.10665733333333,-117.71239933333334,2089000,290.64287313592877,0.5000,0.0625,
34.10665733333333,-117.71239933333334,2089000,290.5415566618667,0.5000,0.0000,
34.10665733333333,-117.71239933333334,2089000,289.85151477700515,0.5625,-0.1250,
34.10665733333333,-117.71239933333334,2089000,290.51098882411543,0.5625,-0.1875,
34.10665733333333,-117.71239933333334,2089000,289.7550409024142,0.5625,-0.3750,
34.10665733333333,-117.71239933333334,2089000,289.2267967614074,0.5625,-0.4375,
34.10665733333333,-117.71239933333334,2089000,291.4872449950308,0.6250,-0.6250,
34.10665733333333,-117.71239933333334,2089000,287.7064824881197,0.6250,-0.6875,
34.10665733333333,-117.71239933333334,2089000,289.9614897646777,0.6875,-0.8750,
34.10665733333333,-117.71239933333334,2089000,287.2497807870674,0.6875,-1.0000,
34.10665733333333,-117.71239933333334,2089000,287.24526216431514,0.6875,-0.8750,
34.10665733333333,-117.71239933333334,2089000,285.3155758805808,0.7500,-1.0000,
34.10665733333333,-117.71239933333334,2089000,287.7344959382842,0.7500,-1.0625,
34.10665733333333,-117.71239933333334,2089000,289.2353235604039,0.8125,-1.3125,
34.10665733333333,-117.71239933333334,2089000,287.3053595211227,0.8750,-1.4375,
34.10665733333333,-117.71239933333334,2089000,286.84113089391417,0.9375,-1.5625,
34.10665733333333,-117.71239933333334,2089000,285.8343330174696,0.9375,-1.6875,
34.10665733333333,-117.71239933333334,2089000,285.6430467616567,0.9375,-2.0000,
34.10665733333333,-117.71239933333334,2089000,287.28994413802036,1.0000,-2.1250,
34.10665733333333,-117.71239933333334,2089000,285.3954017292207,1.0000,-2.0000,
34.1066635,-117.71239833333334,2090000,285.9164060869191,1.0625,-2.0625,
34.1066635,-117.71239833333334,2090000,287.81518771114725,1.0000,-1.9375,
34.1066635,-117.71239833333334,2090000,286.4283737258602,1.0625,-2.2500,
34.1066635,-117.71239833333334,2090000,285.23387587937714,1.0625,-2.2500,
34.1066635,-117.71239833333334,2090000,285.7411377550693,1.0000,-2.1875,
34.1066635,-117.71239833333334,2090000,286.2844981995356,1.0625,-2.0625,
34.1066635,-117.71239833333334,2090000,286.4629398135521,1.0625,-2.0625,
34.1066635,-117.71239833333334,2090000,287.84938667713845,1.0625,-2.0625,
34.1066635,-117.71239833333334,2090000,287.47419602572506,1.1250,-2.0625,
34.1066635,-117.71239833333334,2090000,286.3662468957542,1.1250,-2.0625,
34.1066635,-117.71239833333334,2090000,286.74517232335154,1.1250,-2.0625,
34.1066635,-117.71239833333334,2090000,285.54095342761434,1.1250,-2.0625,
34.1066635,-117.71239833333334,2090000,285.38984166993157,1.1250,-2.1250,
34.1066635,-117.71239833333334,2090000,285.50819268879025,1.1250,-2.1250,
34.1066635,-117.71239833333334,2090000,287.58033221124606,1.1250,-2.1250,
34.1066635,-117.71239833333334,2090000,284.51780744641474,1.1250,-2.0625,
34.1066635,-117.71239833333334,2090000,284.3279667237184,1.1875,-2.0625,
34.1066635,-117.71239833333334,2090000,285.635897830844,1.1875,-2.0625,
34.1066635,-117.71239833333334,2090000,286.02197120197,1.1250,-1.9375,
34.1066635,-117.71239833333334,2090000,284.4369151955261,1.1875,-1.9375,
34.1066635,-117.71239833333334,2090000,286.4729365378132,1.1875,-2.1250,
34.1066635,-117.71239833333334,2090000,284.2540715035168,1.2500,-2.0000,
34.1066635,-117.71239833333334,2090000,283.25979114046083,1.3125,-2.0625,
34.1066635,-117.71239833333334,2090000,284.3665764173951,1.3125,-2.1250,
34.1066635,-117.71239833333334,2090000,285.7458196559327,1.3125,-2.0625,
34.1066635,-117.71239833333334,2090000,284.1562933388001,1.3125,-2.0625,
34.1066635,-117.71239833333334,2090000,283.29408027343163,1.3125,-2.1875,
34.1066635,-117.71239833333334,2090000,285.11555341357644,1.3125,-2.1875,
34.1066635,-117.71239833333334,2090000,285.71380496797656,1.3125,-2.1875,
34.1066635,-117.71239833333334,2090000,283.786258541504,1.3750,-2.3125,
34.1066635,-117.71239833333334,2090000,284.1316769808741,1.3750,-2.3125,
34.1066635,-117.71239833333334,2090000,282.8683567875371,1.3750,-2.3750,
34.1066635,-117.71239833333334,2090000,283.32684136307876,1.3750,-2.3750,
34.1066635,-117.71239833333334,2090000,284.31261615733047,1.4375,-2.4375,
34.1066635,-117.71239833333334,2090000,281.3989823920783,1.5000,-2.5625,
34.1066635,-117.71239833333334,2090000,280.23331573140115,1.5000,-2.5625,
34.1066635,-117.71239833333334,2090000,281.25409509503504,1.5000,-2.5625,
34.1066635,-117.71239833333334,2090000,282.6589702108538,1.5000,-2.5625,
34.1066635,-117.71239833333334,2090000,279.6216973490739,1.5000,-2.6250,
34.1066635,-117.71239833333334,2090000,283.79212814210405,1.5000,-2.6875,
34.10667,-117.71239716666666,2091000,282.0350302365341,1.5000,-2.7500,
34.10667,-117.71239716666666,2091000,284.8746639879636,1.5000,-2.5625,
34.10667,-117.71239716666666,2091000,282.3701170659756,1.4375,-2.7500,
34.10667,-117.71239716666666,2091000,284.0540387844894,1.4375,-2.7500,
34.10667,-117.71239716666666,2091000,282.9057857207097,1.3750,-2.7500,
34.10667,-117.71239716666666,2091000,281.5177081568505,1.3750,-2.8125,
34.10667,-117.71239716666666,2091000,283.7176352655124,1.3125,-2.6875,
34.10667,-117.71239716666666,2091000,282.027284518933,1.3125,-2.8125,
34.10667,-117.71239716666666,2091000,282.1833046387469,1.2500,-2.8125,
34.10667,-117.71239716666666,2091000,281.85672033941955,1.2500,-2.8750,
34.10667,-117.71239716666666,2091000,282.9199722260573,1.2500,-2.9375,
34.10667,-117.71239716666666,2091000,283.63730126208793,1.1250,-2.7500,
34.10667,-117.71239716666666,2091000,283.4857694405289,1.2500,-3.0000,
34.10667,-117.71239716666666,2091000,283.7474194443939,1.2500,-2.6875,
34.10667,-117.71239716666666,2091000,282.8566985478535,1.1875,-2.7500,
34.10667,-117.71239716666666,2091000,283.03555716800804,1.1250,-3.1250,
34.10667,-117.71239716666666,2091000,285.10951976048136,1.0000,-2.6250,
34.10667,-117.71239716666666,2091000,282.5654377620094,0.9375,-3.0625,
34.10667,-117.71239716666666,2091000,283.5456528863326,1.1250,-3.4375,
34.10667,-117.71239716666666,2091000,283.1472543181412,0.8750,-2.7500,
34.10667,-117.71239716666666,2091000,282.93943983481165,1.0625,-3.2500,
34.10667,-117.71239716666666,2091000,283.9876361128827,0.9375,-3.3125,
34.10667,-117.71239716666666,2091000,285.77323102629794,1.1250,-2.4375,
34.10667,-117.71239716666666,2091000,284.602690033925,1.3125,-2.5000,
34.10667,-117.71239716666666,2091000,285.7438513099869,1.3750,-2.1875,
34.10667,-117.71239716666666,2091000,288.0186629599216,1.3125,-2.1250,
34.10667,-117.71239716666666,2091000,285.2855818502187,1.3750,-1.8750,
34.10667,-117.71239716666666,2091000,283.8731477041116,1.2500,-1.4375,
34.10667,-117.71239716666666,2091000,284.8049630277053,1.2500,-1.0625,
34.10667,-117.71239716666666,2091000,283.290072900503,1.1875,-0.8750,
34.10667,-117.71239716666666,2091000,283.2906525071505,1.2500,-0.6875,
34.10667,-117.71239716666666,2091000,283.3521454145614,1.2500,-0.2500,
34.10667,-117.71239716666666,2091000,281.30469920526025,1.3125,-0.1875,
34.10667,-117.71239716666666,2091000,282.005801585599,1.3750,0.1875,
34.10667,-117.71239716666666,2091000,280.0608254208937,1.2500,0.3750,
34.10667,-117.71239716666666,2091000,280.6078433187596,1.2500,0.8750,
34.10667,-117.71239716666666,2091000,280.881782948278,1.3750,1.5625,
34.10667,-117.71239716666666,2091000,278.8673552901628,1.1875,1.1250,
34.10667616666667,-117.71239766666666,2092000,276.5599176814741,1.3125,1.4375,
34.10667616666667,-117.71239766666666,2092000,279.10555294595815,1.3750,1.3125,
34.10667616666667,-117.71239766666666,2092000,277.68575486136183,1.1875,2.1250,
34.10667616666667,-117.71239766666666,2092000,275.55888113987066,1.1250,2.9375,
34.10667616666667,-117.71239766666666,2092000,278.36531512864815,1.1250,4.0000,
34.10667616666667,-117.71239766666666,2092000,274.5316349284667,1.1875,3.1875,
34.10667616666667,-117.71239766666666,2092000,274.1638209804506,1.1875,3.0000,
34.10667616666667,-117.71239766666666,2092000,277.8350203699049,1.0625,3.1875,
34.10667616666667,-117.71239766666666,2092000,274.2383559710986,1.0000,3.4375,
34.10667616666667,-117.71239766666666,2092000,274.13110314273376,0.9375,3.4375,
34.10667616666667,-117.71239766666666,2092000,274.1342476949102,1.0000,3.6250,
34.10667616666667,-117.71239766666666,2092000,275.74014697676193,1.0000,3.3750,
34.10667616666667,-117.71239766666666,2092000,276.6004103644709,0.9375,3.6250,
34.10667616666667,-117.71239766666666,2092000,274.56009211532364,1.0000,4.0000,
34.10667616666667,-117.71239766666666,2092000,277.41802802499626,1.0625,4.0625,
34.10667616666667,-117.71239766666666,2092000,277.9522183883504,1.1250,3.9375,
34.10667616666667,-117.71239766666666,2092000,274.7617085459717,1.0625,4.0000,
34.10667616666667,-117.71239766666666,2092000,278.8836943788541,1.1250,4.0625,
34.10667616666667,-117.71239766666666,2092000,280.24722866665707,1.1875,4.0625,
34.10667616666667,-117.71239766666666,2092000,279.7284993972414,1.3125,4.0625,
34.10667616666667,-117.71239766666666,2092000,279.44674006101377,1.2500,4.3750,
34.10667616666667,-117.71239766666666,2092000,281.13032473119824,1.3750,4.5000,
34.10667616666667,-117.71239766666666,2092000,280.4281228521703,1.3750,4.5625,
34.10667616666667,-117.71239766666666,2092000,279.1022976744614,1.3750,4.8125,
34.10667616666667,-117.71239766666666,2092000,279.55012157352144,1.3750,5.1875,
34.10667616666667,-117.71239766666666,2092000,281.95583092821437,1.5000,5.3125,
34.10667616666667,-117.71239766666666,2092000,281.5912103151487,1.5000,5.2500,
34.10667616666667,-117.71239766666666,2092000,281.69367131076217,1.4375,5.3125,
34.10667616666667,-117.71239766666666,2092000,282.5543123634236,1.4375,5.5000,
34.10667616666667,-117.71239766666666,2092000,281.7841950029947,1.5625,5.5625,
34.10667616666667,-117.71239766666666,2092000,280.5023149287374,1.5000,5.8125,
34.10667616666667,-117.71239766666666,2092000,280.9809396922526,1.5625,5.6250,
34.10667616666667,-117.71239766666666,2092000,282.2932135548382,1.5625,6.1250,
34.10667616666667,-117.71239766666666,2092000,280.6456199104666,1.6250,4.6250,
34.10667616666667,-117.71239766666666,2092000,283.0465914723634,1.6875,4.9375,
34.10667616666667,-117.71239766666666,2092000,278.36156990550023,1.7500,6.6875,
34.10667616666667,-117.71239766666666,2092000,280.74995723790107,1.6250,6.8125,
34.10667616666667,-117.71239766666666,2092000,285.46937673081857,1.7500,5.8750,
34.10667616666667,-117.71239766666666,2092000,280.3029003850786,1.8125,5.6875,
34.10667616666667,-117.71239766666666,2092000,282.8709663586417,1.8125,6.2500,
34.106684666666666,-117.71239683333333,2093000,281.6724378276858,1.7500,6.3125,
34.106684666666666,-117.71239683333333,2093000,279.2000491085631,1.8125,6.2500,
34.106684666666666,-117.71239683333333,2093000,281.20348559050115,1.7500,6.0000,
34.106684666666666,-117.71239683333333,2093000,280.78577909127296,1.6875,6.1875,
34.106684666666666,-117.71239683333333,2093000,278.93038731982335,1.6875,6.5000,
34.106684666666666,-117.71239683333333,2093000,280.02601924927194,1.6875,6.3750,
34.106684666666666,-117.71239683333333,2093000,276.90047587083404,1.6875,6.1875,
34.106684666666666,-117.71239683333333,2093000,280.4671626662123,1.6250,6.3125,
34.106684666666666,-117.71239683333333,2093000,279.65058714061036,1.5625,6.3125,
34.106684666666666,-117.71239683333333,2093000,279.43521187261877,1.5625,6.1250,
34.106684666666666,-117.71239683333333,2093000,277.3998229239364,1.5000,6.1875,
34.106684666666666,-117.71239683333333,2093000,279.03655488548316,1.5000,6.4375,
34.106684666666666,-117.71239683333333,2093000,278.213055375096,1.5000,6.4375,
34.106684666666666,-117.71239683333333,2093000,280.4334138736899,1.5625,6.1250,
34.106684666666666,-117.71239683333333,2093000,278.3792207084849,1.5000,6.0625,
34.106684666666666,-117.71239683333333,2093000,279.5464492939334,1.5000,6.6250,
34.106684666666666,-117.71239683333333,2093000,278.6914557404101,1.5000,6.3750,
34.106684666666666,-117.71239683333333,2093000,279.8698920783239,1.6250,6.3750,
34.106684666666666,-117.71239683333333,2093000,279.5513026072142,1.6875,6.3750,
34.106684666666666,-117.71239683333333,2093000,282.7296202955291,1.6875,6.3125,
34.106684666666666,-117.71239683333333,2093000,279.4807593518078,1.7500,6.2500,
34.106684666666666,-117.71239683333333,2093000,278.8955666760543,1.7500,6.3125,
34.106684666666666,-117.71239683333333,2093000,281.8732599553862,1.7500,6.2500,
34.106684666666666,-117.71239683333333,2093000,278.02872941081887,1.9375,6.1250,
34.106684666666666,-117.71239683333333,2093000,283.87566152480485,1.8750,6.3750,
34.106684666666666,-117.71239683333333,2093000,282.4283420552929,2.0000,5.9375,
34.106684666666666,-117.71239683333333,2093000,280.02984266891883,1.9375,6.1875,
34.106684666666666,-117.71239683333333,2093000,282.0553947492367,1.9375,6.4375,
34.106684666666666,-117.71239683333333,2093000,285.3957176696831,1.9375,6.5000,
34.106684666666666,-117.71239683333333,2093000,281.5266266822123,1.8125,6.3125,
34.106684666666666,-117.71239683333333,2093000,282.0382009852294,1.7500,6.1875,
34.106684666666666,-117.71239683333333,2093000,283.01630746831574,1.8125,6.3125,
34.106684666666666,-117.71239683333333,2093000,281.7000612054859,1.7500,6.2500,
34.106684666666666,-117.71239683333333,2093000,284.278261810648,1.7500,6.1250,
34.106684666666666,-117.71239683333333,2093000,281.90250247207825,1.7500,6.1250,
34.106684666666666,-117.71239683333333,2093000,286.3091493125444,1.6875,6.1875,
34.106684666666666,-117.71239683333333,2093000,283.0681739452607,1.6875,5.9375,
34.106684666666666,-117.71239683333333,2093000,285.08856355785304,1.7500,6.2500,
34.106684666666666,-117.71239683333333,2093000,283.2552069507858,1.6875,5.8125,
34.106684666666666,-117.71239683333333,2093000,282.9712995503421,1.7500,5.8125,
34.10669333333333,-117.71239666666666,2094000,282.96674235874957,1.7500,5.9375,
34.10669333333333,-117.71239666666666,2094000,285.9717107953413,1.7500,5.8750,
34.10669333333333,-117.71239666666666,2094000,285.40727209166994,1.8125,5.8125,
34.10669333333333,-117.71239666666666,2094000,285.96799186005,1.8750,5.6875,
34.10669333333333,-117.71239666666666,2094000,286.7581658663937,1.8125,5.7500,
34.10669333333333,-117.71239666666666,2094000,284.65771541011316,1.8125,5.5000,
34.10669333333333,-117.71239666666666,2094000,286.1623784696121,1.7500,5.5000,
34.10669333333333,-117.71239666666666,2094000,283.834425708239,1.7500,5.3750,
34.10669333333333,-117.71239666666666,2094000,284.8629655026381,1.6875,5.5000,
34.10669333333333,-117.71239666666666,2094000,285.29077291133547,1.6875,5.5000,
34.10669333333333,-117.71239666666666,2094000,285.54652360347677,1.5625,5.1875,
34.10669333333333,-117.71239666666666,2094000,285.41243241773964,1.5625,5.3750,
34.10669333333333,-117.71239666666666,2094000,282.9914390738304,1.5625,5.1250,
34.10669333333333,-117.71239666666666,2094000,281.23411706487514,1.5000,5.1875,
34.10669333333333,-117.71239666666666,2094000,281.0230072699935,1.5000,5.1250,
34.10669333333333,-117.71239666666666,2094000,281.95866169475426,1.4375,5.0000,
34.10669333333333,-117.71239666666666,2094000,281.3951506186105,1.7500,4.9375,
34.10669333333333,-117.71239666666666,2094000,281.0015476017545,1.5625,5.1875,
34.10669333333333,-117.71239666666666,2094000,281.4773001020651,1.5625,4.9375,
34.10669333333333,-117.71239666666666,2094000,284.07938939098483,1.6875,5.0625,
34.10669333333333,-117.71239666666666,2094000,283.76705571580374,1.6875,4.8750,
34.10669333333333,-117.71239666666666,2094000,282.5641141949518,1.7500,5.0625,
34.10669333333333,-117.71239666666666,2094000,281.4409986514979,1.6875,4.8750,
34.10669333333333,-117.71239666666666,2094000,283.46382278193346,1.6250,5.0625,
34.10669333333333,-117.71239666666666,2094000,283.2109380269518,1.6250,5.1250,
34.10669333333333,-117.71239666666666,2094000,284.2409270885705,1.6875,5.0625,
34.10669333333333,-117.71239666666666,2094000,281.0555893858243,1.8125,5.0625,
34.10669333333333,-117.71239666666666,2094000,280.91932653659114,1.6875,4.9375,
34.10669333333333,-117.71239666666666,2094000,283.07612980985255,1.6875,5.0000,
34.10669333333333,-117.71239666666666,2094000,282.7290872599965,1.7500,5.1250,
34.10669333333333,-117.71239666666666,2094000,279.12350444245715,1.7500,5.1875,
34.10669333333333,-117.71239666666666,2094000,282.77249638743876,1.8125,5.3125,
34.10669333333333,-117.71239666666666,2094000,284.1089277950057,1.8125,5.3125,
34.10669333333333,-117.71239666666666,2094000,280.5664885765709,1.9375,5.1250,
34.10669333333333,-117.71239666666666,2094000,281.3539798158022,1.8125,5.1875,
34.10669333333333,-117.71239666666666,2094000,284.315711717197,1.6875,5.0000,
34.10669333333333,-117.71239666666666,2094000,280.9031737029993,1.8750,5.4375,
34.10669333333333,-117.71239666666666,2094000,279.1300711765757,1.8125,5.2500,
34.10669333333333,-117.71239666666666,2094000,281.66527866049125,1.8750,5.4375,
34.10669333333333,-117.71239666666666,2094000,282.1588854287737,1.9375,5.5000,
34.10669333333333,-117.71239666666666,2094000,278.90386778075003,1.9375,5.2500,
34.10670316666667,-117.71239483333333,2095000,282.89135407005347,1.8750,5.2500,
34.10670316666667,-117.71239483333333,2095000,278.7706947292411,2.0625,5.5000,
34.10670316666667,-117.71239483333333,2095000,282.2095666829241,2.0625,5.1250,
34.10670316666667,-117.71239483333333,2095000,283.5660897351265,2.1875,5.0625,
34.10670316666667,-117.71239483333333,2095000,283.1063819632675,2.0000,5.3125,
34.10670316666667,-117.71239483333333,2095000,282.8035032816074,2.0625,5.3750,
34.10670316666667,-117.71239483333333,2095000,282.8300528405896,2.0000,5.4375,
34.10670316666667,-117.71239483333333,2095000,282.65377480550876,1.9375,5.1250,
34.10670316666667,-117.71239483333333,2095000,280.51573421317516,2.0625,5.3125,
34.10670316666667,-117.71239483333333,2095000,282.0944886271096,2.0000,5.3125,
34.10670316666667,-117.71239483333333,2095000,282.36671699121166,1.8750,5.4375,
34.10670316666667,-117.71239483333333,2095000,283.65863886964485,1.8750,5.2500,
34.10670316666667,-117.71239483333333,2095000,283.8764279136917,1.9375,5.4375,
34.10670316666667,-117.71239483333333,2095000,281.28041463911063,2.0000,5.1250,
34.10670316666667,-117.71239483333333,2095000,282.36847348975743,2.0625,5.5625,
34.10670316666667,-117.71239483333333,2095000,282.3065558066064,2.0000,5.1875,
34.10670316666667,-117.71239483333333,2095000,282.311708333046,2.0000,5.3125,
34.10670316666667,-117.71239483333333,2095000,283.37537146986654,2.0000,5.3125,
34.10670316666667,-117.71239483333333,2095000,283.4335831642218,2.0625,5.3750,
34.10670316666667,-117.71239483333333,2095000,282.19296425070377,2.1250,5.5000,
34.10670316666667,-117.71239483333333,2095000,280.848988714268,2.1875,5.2500,
34.10670316666667,-117.71239483333333,2095000,281.76755676005985,2.3125,5.5000,
34.10670316666667,-117.71239483333333,2095000,283.64038995114674,2.3125,5.3750,
34.10670316666667,-117.71239483333333,2095000,281.4082759547023,2.4375,5.5000,
34.10670316666667,-117.71239483333333,2095000,283.4699369841991,2.3750,5.5625,
34.10670316666667,-117.71239483333333,2095000,282.6154540560216,2.3125,5.8125,
34.10670316666667,-117.71239483333333,2095000,281.65251197417024,2.3125,5.5000,
34.10670316666667,-117.71239483333333,2095000,279.71267079665324,2.2500,5.3750,
34.10670316666667,-117.71239483333333,2095000,281.5863064332899,2.1875,5.7500,
34.10670316666667,-117.71239483333333,2095000,279.6167103839912,2.1250,5.4375,
34.10670316666667,-117.71239483333333,2095000,280.75614993084787,2.0625,5.6250,
34.10670316666667,-117.71239483333333,2095000,280.49382977715027,2.0625,5.5625,
34.10670316666667,-117.71239483333333,2095000,283.91503763129367,2.1250,5.5000,
34.10670316666667,-117.71239483333333,2095000,279.71470423485675,1.9375,5.5000,
34.10670316666667,-117.71239483333333,2095000,279.81005718810434,1.9375,5.5000,
34.10670316666667,-117.71239483333333,2095000,281.56724198001507,1.9375,5.5625,
34.10670316666667,-117.71239483333333,2095000,284.22712440077316,2.0000,5.4375,
34.10670316666667,-117.71239483333333,2095000,283.01937042172494,2.0000,5.3750,
34.10670316666667,-117.71239483333333,2095000,282.01761052341226,2.0625,5.5000,
34.106713166666665,-117.7123955,2096000,282.2191963566104,2.0625,5.4375,
34.106713166666665,-117.7123955,2096000,285.1990758364989,2.0625,5.5625,
34.106713166666665,-117.7123955,2096000,281.3123879173472,2.1875,5.8125,
34.106713166666665,-117.7123955,2096000,283.3960060864865,2.1875,5.6250,
34.106713166666665,-117.7123955,2096000,283.5141586588984,2.1875,5.6250,
34.106713166666665,-117.7123955,2096000,282.74590759704415,2.2500,5.8125,
34.106713166666665,-117.7123955,2096000,285.79779585894335,2.3125,5.8750,
34.106713166666665,-117.7123955,2096000,282.9925204812166,2.3125,5.8125,
34.106713166666665,-117.7123955,2096000,285.82053970899415,2.5000,5.8125,
34.106713166666665,-117.7123955,2096000,280.94886741734706,2.5000,5.8750,
34.106713166666665,-117.7123955,2096000,284.6382977246682,2.3750,6.0625,
34.106713166666665,-117.7123955,2096000,281.6350337230616,2.3750,6.1250,
34.106713166666665,-117.7123955,2096000,282.63753492344085,2.4375,6.0000,
34.106713166666665,-117.7123955,2096000,283.1428667558546,2.3750,6.0000,
34.106713166666665,-117.7123955,2096000,281.26584576039,2.3750,6.1250,
34.106713166666665,-117.7123955,2096000,281.2349504285862,2.3125,6.0625,
34.106713166666665,-117.7123955,2096000,283.06702826536684,2.5625,6.0000,
34.106713166666665,-117.7123955,2096000,282.3330823612125,2.3750,6.1250,
34.106713166666665,-117.7123955,2096000,282.38590532852595,2.3750,5.9375,
34.106713166666665,-117.7123955,2096000,283.2987473781393,2.3125,5.9375,
34.106713166666665,-117.7123955,2096000,284.4155576030148,2.2500,6.1250,
34.106713166666665,-117.7123955,2096000,281.4948628172681,2.3750,6.2500,
34.106713166666665,-117.7123955,2096000,283.41705191577364,2.3125,6.5000,
34.106713166666665,-117.7123955,2096000,281.81245439919576,2.3125,6.4375,
34.106713166666665,-117.7123955,2096000,282.82085370043137,2.3750,6.4375,
34.106713166666665,-117.7123955,2096000,281.35924966340156,2.3125,6.5000,
34.106713166666665,-117.7123955,2096000,279.14487178173704,2.2500,6.8125,
34.106713166666665,-117.7123955,2096000,278.73970330846043,2.2500,6.6250,
34.106713166666665,-117.7123955,2096000,281.5808539323118,2.2500,6.5000,
34.106713166666665,-117.7123955,2096000,281.74491154178315,2.2500,6.3750,
34.106713166666665,-117.7123955,2096000,280.4035718319642,2.2500,6.4375,
34.106713166666665,-117.7123955,2096000,279.86785940214315,2.1875,6.6250,
34.106713166666665,-117.7123955,2096000,279.7671662491118,2.1250,6.8125,
34.106713166666665,-117.7123955,2096000,281.4033838973993,2.0625,6.3750,
34.106713166666665,-117.7123955,2096000,283.0510560499755,2.2500,6.6250,
34.106713166666665,-117.7123955,2096000,281.92587910337545,2.2500,6.5625,
34.106713166666665,-117.7123955,2096000,279.05691054094586,2.3125,6.3750,
34.106713166666665,-117.7123955,2096000,281.1892461464322,2.3750,6.2500,
34.106713166666665,-117.7123955,2096000,280.6485363892972,2.3125,6.2500,
34.106713166666665,-117.7123955,2096000,281.5401531374449,2.4375,6.0625,
34.106713166666665,-117.7123955,2096000,282.6234634364946,2.3750,6.2500,
34.10672316666667,-117.71239516666667,2097000,281.4575223348145,2.3125,6.3125,
34.10672316666667,-117.71239516666667,2097000,281.2230282679029,2.4375,6.0625,
34.10672316666667,-117.71239516666667,2097000,283.48490199297225,2.3750,6.0625,
34.10672316666667,-117.71239516666667,2097000,282.03062947920694,2.2500,6.0625,
34.10672316666667,-117.71239516666667,2097000,282.3142166587486,2.3125,5.7500,
34.10672316666667,-117.71239516666667,2097000,282.25476940924204,2.3750,6.0000,
34.10672316666667,-117.71239516666667,2097000,280.08310414484095,2.3750,5.8125,
34.10672316666667,-117.71239516666667,2097000,282.18449426923803,2.5000,5.9375,
34.10672316666667,-117.71239516666667,2097000,284.45391459515986,2.4375,5.8125,
34.10672316666667,-117.71239516666667,2097000,283.6126349818019,2.3750,5.8750,
34.10672316666667,-117.71239516666667,2097000,282.00676479693493,2.4375,6.1250,
34.10672316666667,-117.71239516666667,2097000,281.84587984482596,2.3750,6.0625,
34.10672316666667,-117.71239516666667,2097000,282.91574924164263,2.3750,6.1250,
34.10672316666667,-117.71239516666667,2097000,284.25578815398205,2.5000,6.3125,
34.10672316666667,-117.71239516666667,2097000,282.6792506777987,2.3750,6.0625,
34.10672316666667,-117.71239516666667,2097000,282.23581877385186,2.3750,5.9375,
34.10672316666667,-117.71239516666667,2097000,283.19098803981296,2.3750,5.7500,
34.10672316666667,-117.71239516666667,2097000,279.82112064741636,2.4375,6.4375,
34.10672316666667,-117.71239516666667,2097000,278.10335633583315,2.3125,6.3125,
34.10672316666667,-117.71239516666667,2097000,280.3678739883503,2.3750,6.1250,
34.10672316666667,-117.71239516666667,2097000,281.7045468932354,2.3750,6.3125,
34.10672316666667,-117.71239516666667,2097000,280.15661874229795,2.3125,6.0625,
34.10672316666667,-117.71239516666667,2097000,278.01210132305994,2.2500,6.4375,
34.10672316666667,-117.71239516666667,2097000,278.73787117277743,2.1875,6.5000,
34.10672316666667,-117.71239516666667,2097000,278.6406572506919,2.1250,6.5625,
34.10672316666667,-117.71239516666667,2097000,279.37787517663014,2.1875,6.3750,
34.10672316666667,-117.71239516666667,2097000,279.3034467144273,2.6250,6.1875,
34.10672316666667,-117.71239516666667,2097000,277.61749740897494,2.1875,6.5000,
34.10672316666667,-117.71239516666667,2097000,278.60219516309644,2.1875,6.5000,
34.10672316666667,-117.71239516666667,2097000,278.646628491668,2.2500,6.5000,
34.10672316666667,-117.71239516666667,2097000,278.3585833545899,2.2500,6.3125,
34.10672316666667,-117.71239516666667,2097000,279.2169254582893,2.1250,6.5625,
34.10672316666667,-117.71239516666667,2097000,279.0213885221824,2.1250,6.6250,
34.10672316666667,-117.71239516666667,2097000,282.25476992987114,2.2500,6.5625,
34.10672316666667,-117.71239516666667,2097000,278.3347496932388,2.1875,6.4375,
34.10672316666667,-117.71239516666667,2097000,278.9341582793295,2.2500,6.3750,
34.10672316666667,-117.71239516666667,2097000,278.6782675880572,2.1875,6.5625,
34.10672316666667,-117.71239516666667,2097000,278.0601074930423,2.1875,6.6875,
34.10672316666667,-117.71239516666667,2097000,278.46709564478897,2.1875,6.6250,
34.10672316666667,-117.71239516666667,2097000,278.4482879955699,2.2500,6.5625,
34.1067325,-117.7123955,2098000,280.9573914858827,2.2500,6.6875,
34.1067325,-117.7123955,2098000,280.367287295561,2.2500,6.6250,
34.1067325,-117.7123955,2098000,276.9027901275415,2.2500,6.6250,
34.1067325,-117.7123955,2098000,281.2784805687472,2.2500,6.6875,
34.1067325,-117.7123955,2098000,280.55349636378855,2.3125,6.8125,
34.1067325,-117.7123955,2098000,279.310664657914,2.2500,6.5625,
34.1067325,-117.7123955,2098000,280.3725637722639,2.3125,6.8125,
34.1067325,-117.7123955,2098000,281.38842990585204,2.3125,6.6875,
34.1067325,-117.7123955,2098000,282.38507651583745,2.3125,6.5625,
34.1067325,-117.7123955,2098000,281.2303892619798,2.2500,6.7500,
34.1067325,-117.7123955,2098000,282.9523424835513,2.3125,6.6250,
34.1067325,-117.7123955,2098000,280.8899602465534,2.2500,6.7500,
34.1067325,-117.7123955,2098000,280.5687793723564,2.3125,6.7500,
34.1067325,-117.7123955,2098000,283.083674792191,2.4375,6.7500,
34.1067325,-117.7123955,2098000,280.49127265001755,2.4375,6.8125,
34.1067325,-117.7123955,2098000,284.425106967813,2.3750,6.6250,
34.1067325,-117.7123955,2098000,282.8595073661684,2.4375,6.7500,
34.1067325,-117.7123955,2098000,282.28868967459334,2.5000,6.3750,
34.1067325,-117.7123955,2098000,281.1589192067163,2.5625,6.6875,
34.1067325,-117.7123955,2098000,285.06652142043185,2.5000,6.5625,
34.1067325,-117.7123955,2098000,284.0006807201239,2.5000,6.6875,
34.1067325,-117.7123955,2098000,284.1413510567296,2.5625,6.3750,
34.1067325,-117.7123955,2098000,282.8085696899725,2.5000,6.6250,
34.1067325,-117.7123955,2098000,285.46112592505267,2.5625,6.4375,
34.1067325,-117.7123955,2098000,284.4135036894065,2.5625,6.3125,
34.1067325,-117.7123955,2098000,286.2769398458238,2.6250,6.3125,
34.1067325,-117.7123955,2098000,284.89805948845446,2.5625,6.3125,
34.1067325,-117.7123955,2098000,282.66113919170664,2.5625,6.7500,
34.1067325,-117.7123955,2098000,281.0286024346932,2.6250,6.3750,
34.1067325,-117.7123955,2098000,281.2889752295632,2.6875,6.1875,
34.1067325,-117.7123955,2098000,283.92891372155736,2.5000,6.5000,
34.1067325,-117.7123955,2098000,282.3498162157314,2.6875,6.3125,
34.1067325,-117.7123955,2098000,282.34962081723256,2.6875,6.3125,
34.1067325,-117.7123955,2098000,284.38515016134556,2.5625,6.4375,
34.1067325,-117.7123955,2098000,282.1993655114852,2.5625,6.5000,
34.1067325,-117.7123955,2098000,281.95521330054385,2.5000,6.3125,
34.1067325,-117.7123955,2098000,283.4571799390973,2.5625,6.6250,
34.1067325,-117.7123955,2098000,281.04639300967665,2.5000,6.7500,
34.1067325,-117.7123955,2098000,283.66678269791737,2.5625,6.3125,
34.1067325,-117.7123955,2098000,281.49468841707323,2.5625,6.6250,
34.10674266666667,-117.712395,2099000,284.14704152931483,2.5000,6.5000,
34.10674266666667,-117.712395,2099000,285.48099820459197,2.5625,6.5000,
34.10674266666667,-117.712395,2099000,282.1826886524053,2.5625,6.5625,
34.10674266666667,-117.712395,2099000,283.43696806557637,2.5625,6.4375,
34.10674266666667,-117.712395,2099000,282.50018862813886,2.5625,6.6250,
34.10674266666667,-117.712395,2099000,282.5448789310244,2.5625,6.6875,
34.10674266666667,-117.712395,2099000,283.7235286813486,2.5625,6.8125,
34.10674266666667,-117.712395,2099000,281.19954067884555,2.6250,6.5000,
34.10674266666667,-117.712395,2099000,284.25310739427675,2.5625,6.6875,
34.10674266666667,-117.712395,2099000,283.7721892947527,2.5000,6.7500,
34.10674266666667,-117.712395,2099000,283.96771592527534,2.6250,6.5625,
34.10674266666667,-117.712395,2099000,280.8454669194306,2.5000,6.3125,
34.10674266666667,-117.712395,2099000,283.1723054570108,2.6250,6.6875,
34.10674266666667,-117.712395,2099000,282.61117527067177,2.5625,6.6250,
34.10674266666667,-117.712395,2099000,282.51169882659826,2.5625,6.4375,
34.10674266666667,-117.712395,2099000,282.6421557172396,2.5625,6.6250,
34.10674266666667,-117.712395,2099000,282.1579778526575,2.5625,6.5625,
34.10674266666667,-117.712395,2099000,282.792036675684,2.4375,6.8125,
34.10674266666667,-117.712395,2099000,279.7732064008519,2.5000,6.7500,
34.10674266666667,-117.712395,2099000,281.15711155424174,2.4375,6.6875,
34.10674266666667,-117.712395,2099000,281.8564983626095,2.5000,6.8750,
34.10674266666667,-117.712395,2099000,280.27854280765746,2.5000,6.5625,
34.10674266666667,-117.712395,2099000,281.608758279576,2.3750,6.6250,
34.10674266666667,-117.712395,2099000,279.39780020775163,2.3750,6.3125,
34.10674266666667,-117.712395,2099000,283.27420579069735,2.2500,6.5000,
34.10674266666667,-117.712395,2099000,282.9608316050121,2.3125,6.6875,
34.10674266666667,-117.712395,2099000,280.89553438677103,2.2500,6.7500,
34.10674266666667,-117.712395,2099000,280.7910520449782,2.4375,6.6250,
34.10674266666667,-117.712395,2099000,281.8754366937153,2.2500,6.7500,
34.10674266666667,-117.712395,2099000,279.98951549798437,2.3750,6.7500,
34.10674266666667,-117.712395,2099000,280.2642963860304,2.3125,7.0000,
34.10674266666667,-117.712395,2099000,280.132597862495,2.2500,7.1875,
34.10674266666667,-117.712395,2099000,279.44827151828406,2.3750,7.3125,
34.10674266666667,-117.712395,2099000,280.3782094095145,2.2500,7.0000,
34.10674266666667,-117.712395,2099000,281.31022988983,2.3125,7.1875,
34.10674266666667,-117.712395,2099000,280.2223653429926,2.3750,6.9375,
34.10674266666667,-117.712395,2099000,281.3366220467816,2.3750,7.1250,
34.10674266666667,-117.712395,2099000,280.12722512633695,2.3125,7.0625,
34.10674266666667,-117.712395,2099000,278.93639181856156,2.5625,7.1250,
34.10674266666667,-117.712395,2099000,278.2933621922921,2.3750,7.2500,
34.106752666666665,-117.71239516666667,2100000,280.9714635472485,2.2500,7.0625,
34.106752666666665,-117.71239516666667,2100000,279.94735281294606,2.3125,7.3750,
34.106752666666665,-117.71239516666667,2100000,282.98417118523025,2.3125,7.0625,
34.106752666666665,-117.71239516666667,2100000,282.0513985192629,2.2500,7.5000,
34.106752666666665,-117.71239516666667,2100000,282.8030591423212,2.3750,7.2500,
34.106752666666665,-117.71239516666667,2100000,282.47253859835564,2.3125,7.3125,
34.106752666666665,-117.71239516666667,2100000,280.6725214748442,2.2500,7.3750,
34.106752666666665,-117.71239516666667,2100000,281.6788439222928,2.4375,7.3750,
34.106752666666665,-117.71239516666667,2100000,283.1858909333712,2.3750,7.3750,
34.106752666666665,-117.71239516666667,2100000,280.9580556598255,2.4375,7.0625,
34.106752666666665,-117.71239516666667,2100000,283.06100895207226,2.3750,7.1250,
34.106752666666665,-117.71239516666667,2100000,280.4728497357255,2.3750,7.3125,
34.106752666666665,-117.71239516666667,2100000,281.7989836707884,2.1875,7.0625,
34.106752666666665,-117.71239516666667,2100000,280.78523992428177,2.1875,7.1875,
34.106752666666665,-117.71239516666667,2100000,280.59083304698925,2.4375,6.7500,
34.106752666666665,-117.71239516666667,2100000,284.43751899170434,2.3750,7.0000,
34.106752666666665,-117.71239516666667,2100000,283.59896906958124,2.5000,6.8750,
34.106752666666665,-117.71239516666667,2100000,282.76568205012836,2.5000,6.6875,
34.106752666666665,-117.71239516666667,2100000,283.34896975064794,2.5625,6.7500,
34.106752666666665,-117.71239516666667,2100000,282.8003374742236,2.5625,6.9375,
34.106752666666665,-117.71239516666667,2100000,283.90058956164717,2.5625,6.6875,
34.106752666666665,-117.71239516666667,2100000,284.01871529013783,2.5625,6.8750,
34.106752666666665,-117.71239516666667,2100000,282.52109678996294,2.4375,6.7500,
34.106752666666665,-117.71239516666667,2100000,283.3347834241499,2.4375,6.9375,
34.106752666666665,-117.71239516666667,2100000,285.35712071902094,2.6250,7.0000,
34.106752666666665,-117.71239516666667,2100000,282.8725648226539,2.5000,7.2500,
34.106752666666665,-117.71239516666667,2100000,282.55212802427786,2.5000,6.9375,
34.106752666666665,-117.71239516666667,2100000,285.4861300181018,2.4375,7.0625,
34.106752666666665,-117.71239516666667,2100000,285.35346594953717,2.2500,7.0625,
34.106752666666665,-117.71239516666667,2100000,285.3629864437836,2.3750,7.1875,
34.106752666666665,-117.71239516666667,2100000,285.3300657788965,2.5000,7.0625,
34.106752666666665,-117.71239516666667,2100000,281.381220161892,2.5625,6.8750,
34.106752666666665,-117.71239516666667,2100000,283.0312502482791,2.2500,7.3125,
34.106752666666665,-117.71239516666667,2100000,284.41747257067664,2.3750,7.0625,
34.106752666666665,-117.71239516666667,2100000,284.41712114871757,2.3750,7.5000,
34.106752666666665,-117.71239516666667,2100000,283.37432652944494,2.3125,7.1875,
34.106752666666665,-117.71239516666667,2100000,283.93515314999854,2.1875,7.2500,
34.106752666666665,-117.71239516666667,2100000,281.55720942819835,2.2500,7.3750,
34.106752666666665,-117.71239516666667,2100000,283.50465572236726,2.1875,7.4375,
34.1067625,-117.71239483333333,2101000,281.0828288302441,2.1875,7.3125,
34.1067625,-117.71239483333333,2101000,283.1419269314308,2.3125,7.5000,
34.1067625,-117.71239483333333,2101000,286.02881690744255,2.3125,7.1250,
34.1067625,-117.71239483333333,2101000,283.9315274412819,2.2500,7.4375,
34.1067625,-117.71239483333333,2101000,282.9243633899018,2.3125,7.6250,
34.1067625,-117.71239483333333,2101000,282.4594873180795,2.3750,7.5000,
34.1067625,-117.71239483333333,2101000,286.2111907131275,2.3750,7.4375,
34.1067625,-117.71239483333333,2101000,284.59267830226645,2.4375,7.5625,
34.1067625,-117.71239483333333,2101000,284.29496776810583,2.4375,7.6250,
34.1067625,-117.71239483333333,2101000,281.9791014343242,2.5625,7.6875,
34.1067625,-117.71239483333333,2101000,282.4449297243393,2.5625,7.5000,
34.1067625,-117.71239483333333,2101000,282.91584682292614,2.3750,7.7500,
34.1067625,-117.71239483333333,2101000,281.6701992385649,2.3125,7.9375,
34.1067625,-117.71239483333333,2101000,278.348237846282,2.3750,7.6875,
34.1067625,-117.71239483333333,2101000,282.1408849774118,2.2500,7.5000,
34.1067625,-117.71239483333333,2101000,283.04401306121895,2.6875,7.7500,
34.1067625,-117.71239483333333,2101000,281.839094659602,2.4375,7.4375,
34.1067625,-117.71239483333333,2101000,283.73537619673834,2.2500,7.8125,
34.1067625,-117.71239483333333,2101000,280.7941358655569,2.3750,7.8125,
34.1067625,-117.71239483333333,2101000,280.3666466936046,2.3750,7.5000,
34.1067625,-117.71239483333333,2101000,282.04127300401365,2.4375,7.7500,
34.1067625,-117.71239483333333,2101000,280.6747122691571,2.3750,7.5000,
34.1067625,-117.71239483333333,2101000,283.5831303765035,2.3125,7.4375,
34.1067625,-117.71239483333333,2101000,280.14731040837637,2.3125,7.7500,
34.1067625,-117.71239483333333,2101000,283.10920193214974,2.5625,7.3750,
34.1067625,-117.71239483333333,2101000,282.89391118998697,2.3125,7.4375,
34.1067625,-117.71239483333333,2101000,282.1515386032145,2.3125,7.6875,
34.1067625,-117.71239483333333,2101000,282.1752674311049,2.3125,7.1875,
34.1067625,-117.71239483333333,2101000,280.3775560711065,2.3750,7.6875,
34.1067625,-117.71239483333333,2101000,279.758346997761,2.3750,7.2500,
34.1067625,-117.71239483333333,2101000,283.60956128650355,2.3750,7.5000,
34.1067625,-117.71239483333333,2101000,282.77522517456464,2.2500,7.5625,
34.1067625,-117.71239483333333,2101000,283.0021106939945,2.1875,7.3125,
34.1067625,-117.71239483333333,2101000,280.7346503660292,2.0625,7.5000,
34.1067625,-117.71239483333333,2101000,282.71311190279994,2.1875,7.6875,
34.1067625,-117.71239483333333,2101000,280.4734487706942,2.1250,7.6250,
34.1067625,-117.71239483333333,2101000,282.80104064088164,2.0000,7.7500,
34.1067625,-117.71239483333333,2101000,279.5926197475105,2.1250,7.8750,
34.1067625,-117.71239483333333,2101000,281.6573406710145,2.0625,7.6875,
34.1067625,-117.71239483333333,2101000,279.9400147756113,2.0625,8.1250,
34.106772166666666,-117.71239666666666,2102000,282.0969158583722,2.0000,7.6875,
34.106772166666666,-117.71239666666666,2102000,278.56399603734053,2.0000,7.9375,
34.106772166666666,-117.71239666666666,2102000,280.9644592291046,2.0625,7.8125,
34.106772166666666,-117.71239666666666,2102000,280.74568551237167,1.9375,8.0625,
34.106772166666666,-117.71239666666666,2102000,282.9254750305712,1.9375,7.8750,
34.106772166666666,-117.71239666666666,2102000,281.017368607384,2.0000,8.0000,
34.106772166666666,-117.71239666666666,2102000,279.10310032723544,2.0000,8.1250,
34.106772166666666,-117.71239666666666,2102000,278.9495019844419,1.9375,8.1250,
34.106772166666666,-117.71239666666666,2102000,281.56142289616696,1.8125,8.2500,
34.106772166666666,-117.71239666666666,2102000,280.92006898055774,1.8125,8.1250,
34.106772166666666,-117.71239666666666,2102000,281.27224930385273,1.9375,8.4375,
34.106772166666666,-117.71239666666666,2102000,280.78085225045834,1.8750,7.8750,
34.106772166666666,-117.71239666666666,2102000,282.1746983113701,1.9375,8.4375,
34.106772166666666,-117.71239666666666,2102000,281.9387250248201,1.8750,8.2500,
34.106772166666666,-117.71239666666666,2102000,278.92660852316806,1.9375,8.4375,
34.106772166666666,-117.71239666666666,2102000,280.2717343150532,1.9375,8.1250,
34.106772166666666,-117.71239666666666,2102000,279.2048087642761,2.0000,8.2500,
34.106772166666666,-117.71239666666666,2102000,282.6350569401052,1.8750,8.4375,
34.106772166666666,-117.71239666666666,2102000,280.24318006579506,1.9375,8.5000,
34.106772166666666,-117.71239666666666,2102000,282.2804766933177,1.9375,8.5000,
34.106772166666666,-117.71239666666666,2102000,279.4360149688449,2.1250,8.5000,
34.106772166666666,-117.71239666666666,2102000,281.81866377730194,2.0625,8.3750,
34.106772166666666,-117.71239666666666,2102000,281.2672763517162,2.1250,8.1875,
34.106772166666666,-117.71239666666666,2102000,282.2010671246462,2.1250,8.5625,
34.106772166666666,-117.71239666666666,2102000,279.79023100207587,2.2500,8.0000,
34.106772166666666,-117.71239666666666,2102000,281.63504689003116,2.1875,8.6875,
34.106772166666666,-117.71239666666666,2102000,282.07494081110895,2.1250,8.2500,
34.106772166666666,-117.71239666666666,2102000,282.5508040933711,2.1250,8.3750,
34.106772166666666,-117.71239666666666,2102000,282.58896236638657,2.0625,8.6250,
34.106772166666666,-117.71239666666666,2102000,280.26113676357045,2.0000,8.4375,
34.106772166666666,-117.71239666666666,2102000,282.0399776804277,2.1875,8.6250,
34.106772166666666,-117.71239666666666,2102000,282.07805459636234,2.0000,7.8125,
34.106772166666666,-117.71239666666666,2102000,281.0079823557635,2.0000,8.6250,
34.106772166666666,-117.71239666666666,2102000,282.4389115002623,1.9375,8.0625,
34.106772166666666,-117.71239666666666,2102000,282.7100288796303,2.0625,8.1250,
34.106772166666666,-117.71239666666666,2102000,280.2175532377523,2.1250,8.0000,
34.106772166666666,-117.71239666666666,2102000,280.2006989632864,1.9375,7.9375,
34.106772166666666,-117.71239666666666,2102000,279.14027109099675,2.1875,7.6875,
34.106772166666666,-117.71239666666666,2102000,280.2087204498298,1.8750,8.1875,
34.106772166666666,-117.71239666666666,2102000,278.7351083956531,2.0625,7.8750,
34.106772166666666,-117.71239666666666,2102000,276.52341871009094,2.1250,7.8750,
34.106782333333335,-117.7123985,2103000,282.86362795195805,2.0625,7.6250,
34.106782333333335,-117.7123985,2103000,278.91135285240057,2.0625,8.0000,
34.106782333333335,-117.7123985,2103000,278.6931428398242,2.0000,7.8750,
34.106782333333335,-117.7123985,2103000,278.2139265709477,2.0625,7.6250,
34.106782333333335,-117.7123985,2103000,277.10435642863786,2.1250,8.0000,
34.106782333333335,-117.7123985,2103000,279.5357291851733,2.0000,7.5000,
34.106782333333335,-117.7123985,2103000,277.7613187467489,2.0625,7.6875,
34.106782333333335,-117.7123985,2103000,279.3450138568934,2.0000,7.5000,
34.106782333333335,-117.7123985,2103000,279.18539683321796,2.1250,7.6875,
34.106782333333335,-117.7123985,2103000,280.5754895601258,2.1250,8.0000,
34.106782333333335,-117.7123985,2103000,279.20184415189283,2.0625,7.6250,
34.106782333333335,-117.7123985,2103000,282.6364424010234,2.0000,7.9375,
34.106782333333335,-117.7123985,2103000,278.62127706041883,2.0625,7.8125,
34.106782333333335,-117.7123985,2103000,279.08506467953725,2.0625,7.6250,
34.106782333333335,-117.7123985,2103000,280.6303595887348,2.0625,7.7500,
34.106782333333335,-117.7123985,2103000,280.09817328754616,2.3125,7.5625,
34.106782333333335,-117.7123985,2103000,279.1227586245194,2.1875,7.7500,
34.106782333333335,-117.7123985,2103000,280.29643808666196,2.3750,7.5000,
34.106782333333335,-117.7123985,2103000,280.6438303522748,2.3750,7.6250,
34.106782333333335,-117.7123985,2103000,279.59894423693527,2.1875,7.4375,
34.106782333333335,-117.7123985,2103000,282.27846418816785,2.2500,7.6250,
34.106782333333335,-117.7123985,2103000,278.89282104297376,2.1250,7.6250,
34.106782333333335,-117.7123985,2103000,284.4561995940503,2.3125,7.7500,
34.106782333333335,-117.7123985,2103000,283.2541211974583,2.1250,7.3125,
34.106782333333335,-117.7123985,2103000,284.4227672312103,2.0625,7.9375,
34.106782333333335,-117.7123985,2103000,283.10341893447776,2.5000,7.1250,
34.106782333333335,-117.7123985,2103000,284.8160871152422,2.5000,7.1875,
34.106782333333335,-117.7123985,2103000,284.59277341218956,2.2500,7.5000,
34.106782333333335,-117.7123985,2103000,283.5055699717416,2.2500,7.6875,
34.106782333333335,-117.7123985,2103000,281.93721593877626,2.3125,7.3125,
34.106782333333335,-117.7123985,2103000,282.918129913588,2.3125,7.7500,
34.106782333333335,-117.7123985,2103000,281.49224691692643,2.3125,7.1250,
34.106782333333335,-117.7123985,2103000,284.38152949919436,2.3750,7.6875,
34.106782333333335,-117.7123985,2103000,281.38710906126744,2.2500,7.2500,
34.106782333333335,-117.7123985,2103000,280.2284835526723,2.4375,7.6875,
34.106782333333335,-117.7123985,2103000,281.59073158570845,2.2500,7.4375,
34.106782333333335,-117.7123985,2103000,284.1016109140596,2.3750,7.7500,
34.106782333333335,-117.7123985,2103000,278.9709780340487,2.5000,6.7500,
34.106782333333335,-117.7123985,2103000,284.2453691987755,2.6250,7.0625,
34.106782333333335,-117.7123985,2103000,281.20200245393016,2.1875,7.3125,
34.106793,-117.71239833333334,2104000,281.9080532170857,2.2500,7.2500,
34.106793,-117.71239833333334,2104000,280.3723136578344,2.0625,7.1875,
34.106793,-117.71239833333334,2104000,281.20182051723395,2.0000,7.0000,
34.106793,-117.71239833333334,2104000,281.4162189087631,2.3125,6.7500,
34.106793,-117.71239833333334,2104000,279.3399127207688,2.1250,6.6250,
34.106793,-117.71239833333334,2104000,279.7647728581153,1.9375,6.8750,
34.106793,-117.71239833333334,2104000,280.5212406364469,2.0000,6.6875,
34.106793,-117.71239833333334,2104000,281.9001052201836,2.0000,6.6875,
