Latitude,Longitude,Time Stamp(s),Yaw(degrees),Pitch(degrees),Roll(degrees)
34.10664833333333,-117.71237766666667,3119000,359.5967930368114,0.0000,0.0000,
34.10664833333333,-117.71237766666667,3119000,359.143434587113,0.0000,0.0000,
34.10664833333333,-117.71237766666667,3119000,0.7969980287766703,0.0000,-1.8750,
34.10664833333333,-117.71237766666667,3119000,359.71172630235253,0.0000,-1.8750,
34.10664833333333,-117.71237766666667,3119000,359.7998567145687,0.0000,-1.8750,
34.10664833333333,-117.71237766666667,3119000,359.50242076813424,0.0000,-1.8750,
34.10664833333333,-117.71237766666667,3119000,359.8491243999731,0.0000,-1.8750,
34.10664833333333,-117.71237766666667,3119000,0.4018675163140415,0.0000,-1.8750,
34.10664833333333,-117.71237766666667,3119000,359.42949633566377,0.0000,-1.8750,
34.10664833333333,-117.71237766666667,3119000,356.54394054119325,0.0000,-1.8750,
34.10664833333333,-117.71237766666667,3119000,358.99068827254484,0.0000,-1.8750,
34.10664833333333,-117.71237766666667,3119000,0.632238375871566,0.0000,-1.8750,
34.10664833333333,-117.71237766666667,3119000,359.1787756440142,0.0000,-1.8750,
34.106648666666665,-117.71237716666667,3120000,358.1651958119106,0.0000,-1.8750,
34.106648666666665,-117.71237716666667,3120000,359.89992854007755,0.0000,-1.8750,
34.106648666666665,-117.71237716666667,3120000,0.3526140550134187,0.0000,-1.8750,
34.106648666666665,-117.71237716666667,3120000,0.12501381062588734,0.0000,-1.8750,
34.106648666666665,-117.71237716666667,3120000,359.052222018845,0.0000,-1.8750,
34.106648666666665,-117.71237716666667,3120000,359.22557906101633,0.0000,-1.8750,
34.106648666666665,-117.71237716666667,3120000,0.1617690437035435,0.0000,-1.8750,
34.106648666666665,-117.71237716666667,3120000,2.206985660344799,0.0000,-1.8750,
34.106648666666665,-117.71237716666667,3120000,2.694198970233174,0.0000,-1.8750,
34.106648666666665,-117.71237716666667,3120000,359.13258298993514,0.0000,-1.8750,
34.106648666666665,-117.71237716666667,3120000,0.3910547783086713,0.0000,-1.8750,
34.106648666666665,-117.71237716666667,3120000,358.5262993641959,0.0000,-1.8750,
34.106648666666665,-117.71237716666667,3120000,357.21408856237576,0.0000,-1.8750,
34.106649,-117.7123765,3121000,0.13690048143450895,0.0000,-1.8750,
34.106649,-117.7123765,3121000,357.43817527630904,0.0000,-1.8750,
34.106649,-117.7123765,3121000,1.0455398754006637,0.0000,-1.8750,
34.106649,-117.7123765,3121000,0.6917865320442615,0.0000,-1.8750,
34.106649,-117.7123765,3121000,0.2482601900392183,0.0000,-1.8750,
34.106649,-117.7123765,3121000,358.226868622394,0.0000,-1.8750,
34.106649,-117.7123765,3121000,1.7023998734198358,0.0000,-1.8750,
34.106649,-117.7123765,3121000,357.8460750741327,0.0000,-1.8750,
34.106649,-117.7123765,3121000,0.9690490447399043,0.0000,-1.8750,
34.106649,-117.7123765,3121000,0.03188720386242494,0.0000,-1.8750,
34.106649,-117.7123765,3121000,2.3610169394360128,0.0000,-1.8750,
34.106649,-117.7123765,3121000,358.3941964803997,0.0000,-1.8750,
34.106649,-117.7123765,3121000,358.88896965920617,0.0000,-1.8750,
34.106649,-117.7123765,3121000,359.52639596222843,0.0000,-1.8750,
34.106649,-117.7123765,3121000,0.39712868334640916,0.0000,-1.8750,
34.106649,-117.7123765,3121000,0.5437902249268518,0.0000,-1.8750,
34.106649,-117.7123765,3121000,358.6795422436968,0.0000,-1.8750,
34.106649,-117.7123765,3121000,358.6915422138919,0.0000,-1.8750,
34.10664966666667,-117.71237633333334,3122000,0.5221449640839637,0.0000,-1.8750,
34.10664966666667,-117.71237633333334,3122000,359.40598235142807,0.0000,-1.8750,
34.10664966666667,-117.71237633333334,3122000,358.72481935364306,0.0000,-1.8750,
34.10664966666667,-117.71237633333334,3122000,357.0527060094298,0.0000,-1.8750,
34.10664966666667,-117.71237633333334,3122000,0.17237089415607443,0.0000,-1.8750,
34.10664966666667,-117.71237633333334,3122000,359.7750943298828,0.0000,-1.8750,
34.10664966666667,-117.71237633333334,3122000,358.80420861108496,0.0000,-1.8750,
34.10664966666667,-117.71237633333334,3122000,0.024751298045657677,0.0000,-1.8750,
34.10664966666667,-117.71237633333334,3122000,3.187254508838123,0.0000,-1.8750,
34.10664966666667,-117.71237633333334,3122000,0.5958882351501416,0.0000,-1.8750,
34.10664966666667,-117.71237633333334,3122000,1.4947063782879013,0.0000,-1.8750,
34.10664966666667,-117.71237633333334,3122000,0.02404516683077418,0.0000,-1.8750,
34.10664966666667,-117.71237633333334,3122000,1.3277843238530522,0.0000,-1.8750,
34.10664966666667,-117.71237633333334,3122000,359.69747483824665,0.0000,-1.8750,
34.10664966666667,-117.71237633333334,3122000,359.09290780165054,0.0000,-1.8750,
34.10664966666667,-117.71237633333334,3122000,0.8846980600906136,0.0000,-1.8750,
34.10664966666667,-117.71237633333334,3122000,358.7336126673748,0.0000,-1.8750,
34.10664966666667,-117.71237633333334,3122000,0.5737400580424037,0.0000,-1.8750,
34.10664966666667,-117.71237633333334,3122000,358.1527460263229,0.0000,-1.8750,
34.10664966666667,-117.71237633333334,3122000,358.8889453351019,0.0000,-1.8750,
34.10664966666667,-117.71237633333334,3122000,1.2264581696351797,0.0000,-1.8750,
34.10664966666667,-117.71237633333334,3122000,358.9193227589477,0.0000,-1.8750,
34.10664966666667,-117.71237633333334,3122000,1.739146778238819,0.0000,-1.8750,
34.10664966666667,-117.71237633333334,3122000,357.6664626522861,0.0000,-1.8750,
34.10664966666667,-117.71237633333334,3122000,0.81559628228365,0.0000,-1.8750,
34.10664966666667,-117.71237633333334,3122000,358.78456775483096,0.0000,-1.8750,
34.10664966666667,-117.71237633333334,3122000,1.5646432558803554,0.0000,-1.8750,
34.10664966666667,-117.71237633333334,3122000,356.2588214213561,0.0000,-1.8750,
34.10664966666667,-117.71237633333334,3122000,0.03706748456670539,0.0000,-1.8750,
34.10664966666667,-117.71237633333334,3122000,359.8249289648045,0.0000,-1.8750,
34.10664966666667,-117.71237633333334,3122000,1.3970048826413404,0.0000,-1.8750,
34.10664966666667,-117.71237633333334,3122000,359.45076188025814,0.0000,-1.8750,
34.10664966666667,-117.71237633333334,3122000,359.234696531972,0.0000,-1.8750,
34.10664966666667,-117.71237633333334,3122000,357.7835467858335,0.0000,-1.8750,
34.10664966666667,-117.71237633333334,3122000,358.69366585781165,0.0000,-1.8750,
34.10664966666667,-117.71237633333334,3122000,1.5588254817811276,0.0000,-1.8750,
34.10664966666667,-117.71237633333334,3122000,2.3835646517738382,0.0000,-1.8750,
34.10664966666667,-117.71237633333334,3122000,359.9504474081027,0.0000,-1.8750,
34.10665066666667,-117.71237633333334,3123000,357.7454310581109,0.0000,-1.8750,
34.10665066666667,-117.71237633333334,3123000,358.5528691562714,0.0000,-1.8750,
34.10665066666667,-117.71237633333334,3123000,0.7365703115457336,0.0000,-1.8750,
34.10665066666667,-117.71237633333334,3123000,358.85492025252483,0.0000,-1.8750,
34.10665066666667,-117.71237633333334,3123000,357.84948402379564,0.0000,-1.8750,
34.10665066666667,-117.71237633333334,3123000,0.464723791302049,0.0000,-1.8750,
34.10665066666667,-117.71237633333334,3123000,0.10174956367814048,0.0000,-1.8750,
34.10665066666667,-117.71237633333334,3123000,359.0772289211738,0.0000,-1.8750,
34.10665066666667,-117.71237633333334,3123000,0.3333453582753805,0.0000,-1.8750,
34.10665066666667,-117.71237633333334,3123000,1.6557746654275434,0.0000,-1.8750,
34.10665066666667,-117.71237633333334,3123000,358.4127823740822,0.0000,-1.8750,
34.10665066666667,-117.71237633333334,3123000,359.5066184045577,0.0000,-1.8750,
34.10665066666667,-117.71237633333334,3123000,359.3409012013461,0.0000,-1.8750,
34.10665066666667,-117.71237633333334,3123000,357.031888396805,0.0000,-1.8750,
34.10665066666667,-117.71237633333334,3123000,1.2231107452558945,0.0000,-1.8750,
34.10665066666667,-117.71237633333334,3123000,358.84412340158053,0.0000,-1.8750,
34.10665066666667,-117.71237633333334,3123000,358.2588016295722,0.0000,-1.8750,
34.10665066666667,-117.71237633333334,3123000,359.3054932884827,0.0000,-1.8750,
34.10665066666667,-117.71237633333334,3123000,3.5561931887555147,-0.0625,-1.8750,
34.10665066666667,-117.71237633333334,3123000,1.1473994318230325,-0.0625,-1.8750,
34.10665066666667,-117.71237633333334,3123000,1.2116182887448304,-0.0625,-1.8750,
34.10665066666667,-117.71237633333334,3123000,359.45929661319815,-0.0625,-1.8750,
34.10665066666667,-117.71237633333334,3123000,1.6703594522590492,0.0000,-1.8750,
34.10665066666667,-117.71237633333334,3123000,0.7371520131273428,0.0000,-1.8750,
34.10665066666667,-117.71237633333334,3123000,0.2210094169736294,0.0000,-1.8750,
34.10665066666667,-117.71237633333334,3123000,357.98864608833765,0.0000,-1.8750,
34.10665066666667,-117.71237633333334,3123000,0.3163994910278234,0.0000,-1.8750,
34.10665066666667,-117.71237633333334,3123000,0.7558116289003465,0.0000,-1.8750,
34.10665066666667,-117.71237633333334,3123000,358.5684876384346,0.0000,-1.8750,
34.10665066666667,-117.71237633333334,3123000,1.3448901239798943,0.0000,-1.9375,
34.10665066666667,-117.71237633333334,3123000,359.18525292151526,0.0000,-1.9375,
34.10665066666667,-117.71237633333334,3123000,359.03652281827976,0.0000,-1.9375,
34.10665066666667,-117.71237633333334,3123000,358.62188934130563,0.0000,-1.9375,
34.10665066666667,-117.71237633333334,3123000,359.7784525201628,0.0000,-1.9375,
34.10665066666667,-117.71237633333334,3123000,359.8881865876076,0.0000,-1.9375,
34.10665066666667,-117.71237633333334,3123000,0.762148839351994,0.0000,-1.8750,
34.10665066666667,-117.71237633333334,3123000,358.4802218579988,0.0000,-1.8750,
34.10665066666667,-117.71237633333334,3123000,1.3122002528647272,0.0000,-1.8750,
34.10665066666667,-117.71237633333334,3123000,358.240294231839,0.0000,-1.8750,
34.10665133333333,-117.71237616666667,3124000,358.8909533958348,0.0000,-1.8750,
34.10665133333333,-117.71237616666667,3124000,358.7714098684237,0.0000,-1.8750,
34.10665133333333,-117.71237616666667,3124000,359.563821270464,0.0000,-1.9375,
34.10665133333333,-117.71237616666667,3124000,359.34584075192436,0.0000,-1.9375,
34.10665133333333,-117.71237616666667,3124000,359.7052337703416,0.0000,-1.9375,
34.10665133333333,-117.71237616666667,3124000,359.43629758716725,0.0000,-1.9375,
34.10665133333333,-117.71237616666667,3124000,359.5792302824011,0.0000,-1.9375,
34.10665133333333,-117.71237616666667,3124000,357.49024788085046,0.0000,-1.8750,
34.10665133333333,-117.71237616666667,3124000,359.6843891506637,0.0000,-1.8750,
34.10665133333333,-117.71237616666667,3124000,359.0815068664481,0.0000,-1.8750,
34.10665133333333,-117.71237616666667,3124000,358.8059373342164,0.0000,-1.8750,
34.10665133333333,-117.71237616666667,3124000,359.874492880135,0.0000,-1.8750,
34.10665133333333,-117.71237616666667,3124000,359.18323497448864,0.0000,-1.8750,
34.10665133333333,-117.71237616666667,3124000,359.8499903603084,0.0000,-1.8750,
34.10665133333333,-117.71237616666667,3124000,358.7889004575022,0.0000,-1.8750,
34.10665133333333,-117.71237616666667,3124000,356.73745981519426,0.0000,-1.8750,
34.10665133333333,-117.71237616666667,3124000,359.1791296407757,0.0000,-1.9375,
34.10665133333333,-117.71237616666667,3124000,0.39388468411846134,0.0000,-1.9375,
34.10665133333333,-117.71237616666667,3124000,3.3798439957579376,0.0000,-1.9375,
34.10665133333333,-117.71237616666667,3124000,358.75406317976194,0.0000,-1.9375,
34.10665133333333,-117.71237616666667,3124000,1.0920175256341054,-0.0625,-1.9375,
34.10665133333333,-117.71237616666667,3124000,0.20371871859379098,-0.0625,-1.9375,
34.10665133333333,-117.71237616666667,3124000,358.4379704135838,-0.0625,-1.9375,
34.10665133333333,-117.71237616666667,3124000,359.92336364010157,0.0000,-1.9375,
34.10665133333333,-117.71237616666667,3124000,359.8372631909183,0.0000,-1.9375,
34.10665133333333,-117.71237616666667,3124000,0.46971033681847985,0.0000,-1.9375,
34.10665133333333,-117.71237616666667,3124000,359.84548271242545,0.0000,-1.9375,
34.10665133333333,-117.71237616666667,3124000,359.9247191754748,0.0000,-1.9375,
34.10665133333333,-117.71237616666667,3124000,359.9531997219317,0.0000,-1.9375,
34.10665133333333,-117.71237616666667,3124000,358.1961640186222,0.0000,-1.9375,
34.10665133333333,-117.71237616666667,3124000,358.90909052598045,0.0000,-1.9375,
34.10665133333333,-117.71237616666667,3124000,359.7551966978449,0.0625,-1.9375,
34.10665133333333,-117.71237616666667,3124000,357.3345119069472,0.0625,-1.9375,
34.10665133333333,-117.71237616666667,3124000,359.68899114502483,0.0625,-1.9375,
34.10665133333333,-117.71237616666667,3124000,359.0430333737129,0.1250,-1.9375,
34.10665133333333,-117.71237616666667,3124000,358.7774906036319,0.1250,-1.9375,
34.10665133333333,-117.71237616666667,3124000,359.33985906825114,0.1875,-1.9375,
34.10665133333333,-117.71237616666667,3124000,359.63319253411623,0.1875,-1.9375,
34.10665133333333,-117.71237616666667,3124000,356.20913239586866,0.1875,-1.9375,
34.1066525,-117.71237566666667,3125000,357.1050722074574,0.1250,-1.9375,
34.1066525,-117.71237566666667,3125000,355.0042035449467,0.1250,-1.9375,
34.1066525,-117.71237566666667,3125000,353.89224989238915,0.1250,-1.9375,
34.1066525,-117.71237566666667,3125000,352.4886354321759,0.1250,-1.9375,
34.1066525,-117.71237566666667,3125000,355.318315162708,0.1250,-1.9375,
34.1066525,-117.71237566666667,3125000,354.681489833715,0.1250,-1.9375,
34.1066525,-117.71237566666667,3125000,353.5602868360793,0.0625,-1.9375,
34.1066525,-117.71237566666667,3125000,354.2770120181152,0.0625,-1.9375,
34.1066525,-117.71237566666667,3125000,351.5290806557517,0.0625,-1.9375,
34.1066525,-117.71237566666667,3125000,354.3738059485893,0.1250,-1.9375,
34.1066525,-117.71237566666667,3125000,351.9930034972589,0.1250,-1.9375,
34.1066525,-117.71237566666667,3125000,354.76033125293907,0.1250,-1.9375,
34.1066525,-117.71237566666667,3125000,349.3402751822591,0.1250,-1.8750,
34.1066525,-117.71237566666667,3125000,347.91423191218837,0.1250,-1.8750,
34.1066525,-117.71237566666667,3125000,350.54888909556576,0.1250,-1.8125,
34.1066525,-117.71237566666667,3125000,350.2271194753953,0.1875,-1.8125,
34.1066525,-117.71237566666667,3125000,351.8098172473361,0.1875,-1.8750,
34.1066525,-117.71237566666667,3125000,348.1906647440237,0.1250,-1.8750,
34.1066525,-117.71237566666667,3125000,347.96371347309366,0.0000,-1.9375,
34.1066525,-117.71237566666667,3125000,347.5091566588053,0.0000,-1.9375,
34.1066525,-117.71237566666667,3125000,343.7147714449702,0.0000,-1.8750,
34.1066525,-117.71237566666667,3125000,346.9688957868366,0.0000,-1.8750,
34.1066525,-117.71237566666667,3125000,347.3286471238473,0.0625,-1.8750,
34.1066525,-117.71237566666667,3125000,348.7038210523276,0.0625,-1.8750,
34.1066525,-117.71237566666667,3125000,345.29149054818083,0.0000,-1.8750,
34.1066525,-117.71237566666667,3125000,345.69451137675173,0.0000,-1.8750,
34.1066525,-117.71237566666667,3125000,346.83519328276634,0.0000,-1.8750,
34.1066525,-117.71237566666667,3125000,342.3447665180272,0.0000,-1.8750,
34.1066525,-117.71237566666667,3125000,345.59577205577295,0.0000,-1.8750,
34.1066525,-117.71237566666667,3125000,344.78835515197056,-0.0625,-1.8750,
34.1066525,-117.71237566666667,3125000,343.2438847580329,-0.0625,-1.8750,
34.1066525,-117.71237566666667,3125000,344.46149187396975,-0.0625,-1.8750,
34.1066525,-117.71237566666667,3125000,343.2917627107132,-0.1250,-1.8125,
34.1066525,-117.71237566666667,3125000,341.1276510613218,-0.1875,-1.8750,
34.1066525,-117.71237566666667,3125000,343.34796926009756,-0.2500,-1.8750,
34.1066525,-117.71237566666667,3125000,342.05790515426906,-0.2500,-1.9375,
34.1066525,-117.71237566666667,3125000,340.24161184625757,-0.3750,-1.9375,
34.1066525,-117.71237566666667,3125000,340.1254086582494,-0.3750,-1.9375,
34.10665316666667,-117.712376,3126000,340.4752319527904,-0.4375,-2.0000,
34.10665316666667,-117.712376,3126000,340.12119580208423,-0.5000,-2.0000,
34.10665316666667,-117.712376,3126000,339.78876580481415,-0.5625,-2.0000,
34.10665316666667,-117.712376,3126000,339.1115730776319,-0.6250,-2.0000,
34.10665316666667,-117.712376,3126000,340.665834631753,-0.6875,-2.0000,
34.10665316666667,-117.712376,3126000,336.3832703401008,-0.7500,-2.0000,
34.10665316666667,-117.712376,3126000,336.2070854476616,-0.7500,-2.0625,
34.10665316666667,-117.712376,3126000,332.6879591048162,-0.8125,-2.0625,
34.10665316666667,-117.712376,3126000,333.28601614545823,-0.8125,-2.0000,
34.10665316666667,-117.712376,3126000,334.95855874575466,-0.8125,-2.0000,
34.10665316666667,-117.712376,3126000,333.6011298059469,-0.8125,-1.9375,
34.10665316666667,-117.712376,3126000,331.3567379995802,-0.7500,-1.8750,
34.10665316666667,-117.712376,3126000,331.1253328313353,-0.7500,-1.8750,
34.10665316666667,-117.712376,3126000,330.4019991766802,-0.6875,-1.8125,
34.10665316666667,-117.712376,3126000,328.3157189682652,-0.6875,-1.7500,
34.10665316666667,-117.712376,3126000,326.0504836020875,-0.6250,-1.6875,
34.10665316666667,-117.712376,3126000,328.5038150051271,-0.5625,-1.6250,
34.10665316666667,-117.712376,3126000,322.8417817017329,-0.5000,-1.5625,
34.10665316666667,-117.712376,3126000,323.68880545314414,-0.4375,-1.5625,
34.10665316666667,-117.712376,3126000,321.6782112746124,-0.5000,-1.5625,
34.10665316666667,-117.712376,3126000,321.4833387157039,-0.5000,-1.6250,
34.10665316666667,-117.712376,3126000,322.8630901501472,-0.6250,-1.6875,
34.10665316666667,-117.712376,3126000,319.7907020768092,-0.6250,-1.6875,
34.10665316666667,-117.712376,3126000,320.1704806119883,-0.6875,-1.7500,
34.10665316666667,-117.712376,3126000,315.982981933103,-0.6875,-1.6875,
34.10665316666667,-117.712376,3126000,316.3708536370841,-0.7500,-1.6250,
34.10665316666667,-117.712376,3126000,316.4233540738338,-0.7500,-1.5625,
34.10665316666667,-117.712376,3126000,312.20166371947994,-0.6875,-1.5000,
34.10665316666667,-117.712376,3126000,313.2315559721717,-0.6250,-1.4375,
34.10665316666667,-117.712376,3126000,312.7443846990832,-0.6250,-1.3750,
34.10665316666667,-117.712376,3126000,313.1701369521322,-0.6875,-1.3750,
34.10665316666667,-117.712376,3126000,310.76021507590417,-0.8125,-1.3750,
34.10665316666667,-117.712376,3126000,309.14851234171635,-0.7500,-1.4375,
34.10665316666667,-117.712376,3126000,310.6323888688145,-0.7500,-1.3750,
34.10665316666667,-117.712376,3126000,307.57822508089566,-0.7500,-1.3125,
34.10665316666667,-117.712376,3126000,308.70872845613826,-0.6875,-1.2500,
34.10665316666667,-117.712376,3126000,306.4660870307739,-0.7500,-1.3750,
34.10665433333333,-117.71237683333334,3127000,305.18622611641183,-0.8125,-1.3125,
34.10665433333333,-117.71237683333334,3127000,302.9975579153602,-0.7500,-1.3125,
34.10665433333333,-117.71237683333334,3127000,303.54570265980965,-0.7500,-1.3125,
34.10665433333333,-117.71237683333334,3127000,302.809605315289,-0.7500,-1.3125,
34.10665433333333,-117.71237683333334,3127000,303.7966267450108,-0.7500,-1.3125,
34.10665433333333,-117.71237683333334,3127000,303.7837106728657,-0.7500,-1.3125,
34.10665433333333,-117.71237683333334,3127000,301.157681125101,-0.8125,-1.2500,
34.10665433333333,-117.71237683333334,3127000,301.14077328605356,-0.8750,-1.2500,
34.10665433333333,-117.71237683333334,3127000,297.32744118812684,-0.8125,-1.2500,
34.10665433333333,-117.71237683333334,3127000,297.62726793716297,-0.8125,-1.1875,
34.10665433333333,-117.71237683333334,3127000,296.62222738218,-0.8750,-1.1875,
34.10665433333333,-117.71237683333334,3127000,294.4250732202195,-0.8750,-1.1875,
34.10665433333333,-117.71237683333334,3127000,293.18821225159604,-0.8125,-1.1875,
34.10665433333333,-117.71237683333334,3127000,295.09559916963576,-0.8125,-1.1875,
34.10665433333333,-117.71237683333334,3127000,291.7774356013639,-0.8125,-1.1875,
34.10665433333333,-117.71237683333334,3127000,290.6553398763617,-0.8125,-1.1875,
34.10665433333333,-117.71237683333334,3127000,289.49756822357426,-0.8125,-1.1875,
34.10665433333333,-117.71237683333334,3127000,289.05271175947587,-0.8125,-1.1875,
34.10665433333333,-117.71237683333334,3127000,290.3060230944046,-0.8125,-1.1875,
34.10665433333333,-117.71237683333334,3127000,292.4534217225894,-0.8125,-1.1875,
34.10665433333333,-117.71237683333334,3127000,289.76127012000643,-0.8125,-1.1875,
34.10665433333333,-117.71237683333334,3127000,287.7654880667451,-0.8125,-1.1875,
34.10665433333333,-117.71237683333334,3127000,290.07214853127493,-0.8125,-1.1875,
34.10665433333333,-117.71237683333334,3127000,289.62058111834233,-0.8125,-1.1875,
34.10665433333333,-117.71237683333334,3127000,290.77230717701536,-0.7500,-1.1875,
34.10665433333333,-117.71237683333334,3127000,290.2864052217964,-0.7500,-1.1875,
34.10665433333333,-117.71237683333334,3127000,290.45367373340923,-0.7500,-1.1875,
34.10665433333333,-117.71237683333334,3127000,289.8616911649008,-0.7500,-1.1875,
34.10665433333333,-117.71237683333334,3127000,289.7129384392274,-0.7500,-1.1875,
34.10665433333333,-117.71237683333334,3127000,288.21091432063986,-0.7500,-1.1875,
34.10665433333333,-117.71237683333334,3127000,287.6082922919077,-0.6875,-1.1875,
34.10665433333333,-117.71237683333334,3127000,285.63060672913105,-0.6875,-1.2500,
34.10665433333333,-117.71237683333334,3127000,285.9525219410775,-0.6875,-1.1875,
34.10665433333333,-117.71237683333334,3127000,286.96433926613395,-0.6875,-1.1875,
34.10665433333333,-117.71237683333334,3127000,286.94669592284595,-0.6875,-1.1875,
34.10665433333333,-117.71237683333334,3127000,285.1658264954564,-0.6875,-1.1875,
34.106655333333336,-117.71237666666667,3128000,284.96834212769113,-0.6875,-1.1875,
34.106655333333336,-117.71237666666667,3128000,284.9372494534982,-0.6250,-1.1875,
34.106655333333336,-117.71237666666667,3128000,283.9390169203738,-0.5625,-1.1875,
34.106655333333336,-117.71237666666667,3128000,282.37868720020276,-0.5625,-1.2500,
34.106655333333336,-117.71237666666667,3128000,282.9899009414679,-0.5625,-1.2500,
34.106655333333336,-117.71237666666667,3128000,284.8558156541271,-0.6250,-1.2500,
34.106655333333336,-117.71237666666667,3128000,282.3890617225936,-0.6875,-1.1875,
34.106655333333336,-117.71237666666667,3128000,283.77227524972966,-0.7500,-1.1875,
34.106655333333336,-117.71237666666667,3128000,282.9085646595149,-0.7500,-1.1250,
34.106655333333336,-117.71237666666667,3128000,281.2469560980794,-0.8125,-1.1875,
34.106655333333336,-117.71237666666667,3128000,282.2226040116616,-0.8750,-1.1875,
34.106655333333336,-117.71237666666667,3128000,284.6438571195787,-0.8750,-1.1875,
34.106655333333336,-117.71237666666667,3128000,278.7036914981593,-0.8750,-1.1875,
34.106655333333336,-117.71237666666667,3128000,283.44177380506653,-0.9375,-1.1875,
34.106655333333336,-117.71237666666667,3128000,283.4263802173739,-0.9375,-1.1875,
34.106655333333336,-117.71237666666667,3128000,278.933429328064,-0.8750,-1.1875,
34.106655333333336,-117.71237666666667,3128000,282.6635755434029,-0.8750,-1.1875,
34.106655333333336,-117.71237666666667,3128000,278.98362116118597,-0.8750,-1.1875,
34.106655333333336,-117.71237666666667,3128000,282.2851189028604,-0.9375,-1.1250,
34.106655333333336,-117.71237666666667,3128000,284.110050816578,-0.9375,-1.1250,
34.106655333333336,-117.71237666666667,3128000,281.2963329772431,-0.9375,-1.1250,
34.106655333333336,-117.71237666666667,3128000,280.7799199809706,-0.9375,-1.1250,
34.106655333333336,-117.71237666666667,3128000,278.47615772394,-0.9375,-1.1250,
34.106655333333336,-117.71237666666667,3128000,280.84945570726586,-0.9375,-1.1250,
34.106655333333336,-117.71237666666667,3128000,282.41829293712476,-0.8750,-1.1875,
34.106655333333336,-117.71237666666667,3128000,283.5315044989982,-0.9375,-1.1875,
34.106655333333336,-117.71237666666667,3128000,281.33798358763124,-0.9375,-1.1875,
34.106655333333336,-117.71237666666667,3128000,283.232918600987,-0.9375,-1.2500,
34.106655333333336,-117.71237666666667,3128000,280.3341498692207,-1.0000,-1.4375,
34.106655333333336,-117.71237666666667,3128000,286.0680017602713,-1.0625,-1.5000,
34.106655333333336,-117.71237666666667,3128000,283.9127637474876,-1.1250,-1.5625,
34.106655333333336,-117.71237666666667,3128000,281.261789883088,-1.0625,-1.6250,
34.106655333333336,-117.71237666666667,3128000,281.742178844258,-1.1250,-1.6250,
34.106655333333336,-117.71237666666667,3128000,280.5860672115921,-1.1875,-1.6250,
34.106655333333336,-117.71237666666667,3128000,284.64206833389835,-1.1875,-1.6250,
34.106655333333336,-117.71237666666667,3128000,283.63490414677347,-1.1875,-1.6250,
34.106655333333336,-117.71237666666667,3128000,283.16263425047737,-1.1875,-1.6875,
34.106656,-117.71237633333334,3129000,281.91540646895896,-1.2500,-1.6250,
34.106656,-117.71237633333334,3129000,282.320620615757,-1.3750,-1.5625,
34.106656,-117.71237633333334,3129000,285.06413718058593,-1.5000,-1.5000,
34.106656,-117.71237633333334,3129000,283.28124871262025,-1.5625,-1.4375,
34.106656,-117.71237633333334,3129000,281.66124088209426,-1.6875,-1.3125,
34.106656,-117.71237633333334,3129000,281.96462609325715,-1.6875,-1.2500,
34.106656,-117.71237633333334,3129000,280.8276236884594,-1.6250,-1.3125,
34.106656,-117.71237633333334,3129000,282.52003036742303,-1.5625,-1.3750,
34.106656,-117.71237633333334,3129000,282.00296579759834,-1.5000,-1.3750,
34.106656,-117.71237633333334,3129000,283.33710042528446,-1.3125,-1.3750,
34.106656,-117.71237633333334,3129000,279.0742998216342,-1.3125,-1.3750,
34.106656,-117.71237633333334,3129000,280.6313879325022,-1.2500,-1.5000,
34.106656,-117.71237633333334,3129000,280.0757205282697,-1.2500,-1.5625,
34.106656,-117.71237633333334,3129000,282.53454856293,-1.1875,-1.5625,
34.106656,-117.71237633333334,3129000,281.6248102744056,-1.1875,-1.6250,
34.106656,-117.71237633333334,3129000,279.7357286534766,-1.1875,-1.6250,
34.106656,-117.71237633333334,3129000,278.11421081130266,-1.1875,-1.6875,
34.106656,-117.71237633333334,3129000,277.6657620501501,-1.1875,-1.7500,
34.106656,-117.71237633333334,3129000,277.0586523252432,-1.1875,-1.7500,
34.106656,-117.71237633333334,3129000,281.0756535649721,-1.2500,-1.8125,
34.106656,-117.71237633333334,3129000,278.6156934373962,-1.3125,-1.8750,
34.106656,-117.71237633333334,3129000,279.7608856077354,-1.3125,-1.8750,
34.106656,-117.71237633333334,3129000,276.68743956396406,-1.4375,-1.9375,
34.106656,-117.71237633333334,3129000,278.8929587962207,-1.4375,-1.9375,
34.106656,-117.71237633333334,3129000,277.37077584393694,-1.5625,-1.9375,
34.106656,-117.71237633333334,3129000,277.6255168008919,-1.5000,-2.1875,
34.106656,-117.71237633333334,3129000,280.41902590615086,-1.3125,-2.3750,
34.106656,-117.71237633333334,3129000,277.2551344680934,-1.2500,-2.5000,
34.106656,-117.71237633333334,3129000,279.37037379760125,-1.1875,-2.6250,
34.106656,-117.71237633333334,3129000,278.5709636023182,-1.0625,-2.6875,
34.106656,-117.71237633333334,3129000,278.6009874373466,-1.0625,-2.8750,
34.106656,-117.71237633333334,3129000,280.8079284188474,-1.0000,-3.0000,
34.106656,-117.71237633333334,3129000,276.47897443663055,-1.0000,-3.1250,
34.106656,-117.71237633333334,3129000,280.3782761982643,-1.0000,-3.2500,
34.106656,-117.71237633333334,3129000,280.5373014149095,-1.0000,-3.3125,
34.106656,-117.71237633333334,3129000,282.6996287456677,-1.0625,-3.4375,
34.106656,-117.71237633333334,3129000,282.57156805400496,-1.0625,-3.4375,
34.1066605,-117.71237533333333,3130000,280.2535771277139,-1.0000,-3.5625,
34.1066605,-117.71237533333333,3130000,280.74774806995015,-1.0000,-3.7500,
34.1066605,-117.71237533333333,3130000,281.3826344963684,-0.9375,-3.6875,
34.1066605,-117.71237533333333,3130000,282.0092000337647,-0.9375,-3.8125,
34.1066605,-117.71237533333333,3130000,282.76357410979847,-0.8750,-3.8750,
34.1066605,-117.71237533333333,3130000,282.189356676829,-0.8125,-4.1250,
34.1066605,-117.71237533333333,3130000,279.929827268827,-0.8125,-4.1250,
34.1066605,-117.71237533333333,3130000,284.20360802710104,-0.7500,-4.1875,
34.1066605,-117.71237533333333,3130000,280.40027296892276,-0.7500,-4.2500,
34.1066605,-117.71237533333333,3130000,282.0923267372351,-0.6875,-4.2500,
34.1066605,-117.71237533333333,3130000,281.33174079692185,-0.6875,-4.2500,
34.1066605,-117.71237533333333,3130000,282.28940629713156,-0.6875,-4.0625,
34.1066605,-117.71237533333333,3130000,282.953456954286,-0.6875,-4.0000,
34.1066605,-117.71237533333333,3130000,285.1114024095907,-0.6250,-4.1875,
34.1066605,-117.71237533333333,3130000,279.52925086856567,-0.6250,-4.2500,
34.1066605,-117.71237533333333,3130000,280.9673632574729,-0.6875,-4.1875,
34.1066605,-117.71237533333333,3130000,281.8552865001666,-0.6250,-4.1250,
34.1066605,-117.71237533333333,3130000,280.6941005471733,-0.6250,-4.1250,
34.1066605,-117.71237533333333,3130000,282.1707608996114,-0.6250,-4.1250,
34.1066605,-117.71237533333333,3130000,282.10856384958515,-0.6250,-4.0625,
34.1066605,-117.71237533333333,3130000,281.28274526056987,-0.6250,-4.1250,
34.1066605,-117.71237533333333,3130000,279.73390684955393,-0.6250,-4.0625,
34.1066605,-117.71237533333333,3130000,279.8841345017536,-0.6250,-4.0625,
34.1066605,-117.71237533333333,3130000,280.2804657942838,-0.6250,-4.0625,
34.1066605,-117.71237533333333,3130000,278.7694024069085,-0.6250,-4.0625,
34.1066605,-117.71237533333333,3130000,282.4103889065108,-0.5625,-4.0625,
34.1066605,-117.71237533333333,3130000,279.800164738012,-0.5625,-4.0625,
34.1066605,-117.71237533333333,3130000,279.0568641963273,-0.5625,-4.0625,
34.1066605,-117.71237533333333,3130000,280.5361602121361,-0.6250,-4.0625,
34.1066605,-117.71237533333333,3130000,280.06258909896644,-0.6250,-4.1250,
34.1066605,-117.71237533333333,3130000,278.0125793872405,-0.5625,-4.1875,
34.1066605,-117.71237533333333,3130000,279.6644765265178,-0.5625,-4.1875,
34.1066605,-117.71237533333333,3130000,279.1523299069386,-0.5625,-4.2500,
34.1066605,-117.71237533333333,3130000,279.0811167228801,-0.6250,-4.2500,
34.1066605,-117.71237533333333,3130000,279.50694589761497,-0.5625,-4.3125,
34.1066605,-117.71237533333333,3130000,278.45006665243477,-0.6250,-4.3125,
34.1066605,-117.71237533333333,3130000,277.85077280194423,-0.6250,-4.3125,
34.1066605,-117.71237533333333,3130000,277.9584234677343,-0.6250,-4.3750,
34.106667333333334,-117.7123755,3131000,279.00964203809247,-0.6250,-4.3750,
34.106667333333334,-117.7123755,3131000,275.91758329675054,-0.6250,-4.4375,
34.106667333333334,-117.7123755,3131000,279.5548575801813,-0.6250,-4.4375,
34.106667333333334,-117.7123755,3131000,278.4841300594742,-0.6250,-4.5000,
34.106667333333334,-117.7123755,3131000,280.0987133879064,-0.6875,-4.6250,
34.106667333333334,-117.7123755,3131000,281.02924143369205,-0.6875,-4.6250,
34.106667333333334,-117.7123755,3131000,279.88403892272606,-0.6875,-4.6250,
34.106667333333334,-117.7123755,3131000,278.5179303685168,-0.6875,-4.6250,
34.106667333333334,-117.7123755,3131000,283.44455100789605,-0.6875,-4.6875,
34.106667333333334,-117.7123755,3131000,280.46407674675334,-0.6875,-4.6250,
34.106667333333334,-117.7123755,3131000,278.4483747099641,-0.6875,-4.6250,
34.106667333333334,-117.7123755,3131000,281.60341110795616,-0.6875,-4.6875,
34.106667333333334,-117.7123755,3131000,276.5096610470848,-0.6875,-4.6875,
34.106667333333334,-117.7123755,3131000,282.25404882968974,-0.7500,-4.7500,
34.106667333333334,-117.7123755,3131000,283.1536657521465,-0.8125,-4.7500,
34.106667333333334,-117.7123755,3131000,281.40360924999516,-0.8125,-4.7500,
34.106667333333334,-117.7123755,3131000,279.9228224675496,-0.8125,-4.7500,
34.106667333333334,-117.7123755,3131000,280.3572585861432,-0.7500,-4.6875,
34.106667333333334,-117.7123755,3131000,281.7805538009926,-0.8125,-4.2500,
34.106667333333334,-117.7123755,3131000,279.5008045484965,-0.8125,-4.1250,
34.106667333333334,-117.7123755,3131000,280.7888052274293,-0.7500,-4.5000,
34.106667333333334,-117.7123755,3131000,281.8541621523973,-0.6250,-4.5000,
34.106667333333334,-117.7123755,3131000,278.95968176502856,-0.6875,-4.5625,
34.106667333333334,-117.7123755,3131000,280.3176833128516,-0.6250,-4.5625,
34.106667333333334,-117.7123755,3131000,280.79286109787677,-0.5000,-4.4375,
34.106667333333334,-117.7123755,3131000,278.4736192134683,-0.5000,-4.3125,
34.106667333333334,-117.7123755,3131000,280.7493043171287,-0.5625,-3.8125,
34.106667333333334,-117.7123755,3131000,279.3112777606002,-0.5000,-3.5625,
34.106667333333334,-117.7123755,3131000,278.3147567244864,-0.6250,-3.3750,
34.106667333333334,-117.7123755,3131000,279.6741067123879,-0.6250,-3.2500,
34.106667333333334,-117.7123755,3131000,277.5723193403071,-0.6250,-2.9375,
34.106667333333334,-117.7123755,3131000,278.3681645335871,-0.6250,-2.6250,
34.106667333333334,-117.7123755,3131000,281.0451446737152,-0.5625,-2.2500,
34.106667333333334,-117.7123755,3131000,280.7983237135502,-0.6250,-1.7500,
34.106667333333334,-117.7123755,3131000,278.28402082479806,-0.5000,-1.7500,
34.106667333333334,-117.7123755,3131000,281.2359415404144,-0.5625,-1.4375,
34.10667466666666,-117.71237533333333,3132000,278.7462093070376,-0.6250,-1.2500,
34.10667466666666,-117.71237533333333,3132000,278.9142501724875,-0.5625,-0.6875,
34.10667466666666,-117.71237533333333,3132000,277.2243714432236,-0.5625,-0.6875,
34.10667466666666,-117.71237533333333,3132000,278.45415913365764,-0.4375,-0.3750,
34.10667466666666,-117.71237533333333,3132000,278.9208115108172,-0.5000,0.0000,
34.10667466666666,-117.71237533333333,3132000,277.8298832325013,-0.3750,0.5625,
34.10667466666666,-117.71237533333333,3132000,274.8730520323966,-0.3750,1.0000,
34.10667466666666,-117.71237533333333,3132000,279.1681343262991,-0.4375,1.2500,
34.10667466666666,-117.71237533333333,3132000,276.1493530341654,-0.3125,0.9375,
34.10667466666666,-117.71237533333333,3132000,278.4513310644179,-0.5000,2.0000,
34.10667466666666,-117.71237533333333,3132000,279.5337462217424,-0.4375,1.4375,
34.10667466666666,-117.71237533333333,3132000,279.05883176350744,-0.4375,0.8750,
34.10667466666666,-117.71237533333333,3132000,278.1493331201341,-0.3750,1.3750,
34.10667466666666,-117.71237533333333,3132000,279.02077790160615,-0.3125,1.6875,
34.10667466666666,-117.71237533333333,3132000,280.5578392784241,-0.2500,1.3125,
34.10667466666666,-117.71237533333333,3132000,278.04608335727676,-0.2500,1.5000,
34.10667466666666,-117.71237533333333,3132000,281.23203455131375,-0.2500,1.6875,
34.10667466666666,-117.71237533333333,3132000,278.7631884543033,-0.1875,1.7500,
34.10667466666666,-117.71237533333333,3132000,279.3981518227283,-0.2500,2.8125,
34.10667466666666,-117.71237533333333,3132000,280.2658984852801,-0.1875,1.9375,
34.10667466666666,-117.71237533333333,3132000,282.64480597564216,-0.1875,2.0000,
34.10667466666666,-117.71237533333333,3132000,278.0085041479066,-0.1875,2.0625,
34.10667466666666,-117.71237533333333,3132000,278.6161031060675,-0.2500,2.1250,
34.10667466666666,-117.71237533333333,3132000,278.71877465017906,-0.2500,2.5625,
34.10667466666666,-117.71237533333333,3132000,276.8936215628852,-0.1875,2.1250,
34.10667466666666,-117.71237533333333,3132000,277.9112389777033,-0.1250,2.1250,
34.10667466666666,-117.71237533333333,3132000,282.2200933867173,0.0000,2.6250,
34.10667466666666,-117.71237533333333,3132000,279.3854234828325,0.0000,3.3750,
34.10667466666666,-117.71237533333333,3132000,278.4615114384179,0.0000,2.5625,
34.10667466666666,-117.71237533333333,3132000,278.9662490405475,0.0625,3.1875,
34.10667466666666,-117.71237533333333,3132000,279.131020663988,0.0000,2.9375,
34.10667466666666,-117.71237533333333,3132000,279.5684057013907,0.0625,3.6875,
34.10667466666666,-117.71237533333333,3132000,277.08669097114694,0.0625,2.8750,
34.10667466666666,-117.71237533333333,3132000,277.9557106172995,0.1250,3.0000,
34.10667466666666,-117.71237533333333,3132000,274.83456007422456,0.1875,3.1250,
34.10667466666666,-117.71237533333333,3132000,279.50065163242743,0.2500,3.0625,
34.10667466666666,-117.71237533333333,3132000,277.112730367867,0.3125,3.0000,
34.10667466666666,-117.71237533333333,3132000,277.71505594143275,0.3750,3.1875,
34.10667466666666,-117.71237533333333,3132000,277.6353508984482,0.1250,3.5000,
34.106684,-117.71237616666667,3133000,280.4678538722799,0.3750,3.3750,
34.106684,-117.71237616666667,3133000,277.0591053773019,0.3125,3.3750,
34.106684,-117.71237616666667,3133000,277.7026718957875,0.3125,3.2500,
34.106684,-117.71237616666667,3133000,278.6649589320182,0.3125,3.5625,
34.106684,-117.71237616666667,3133000,278.58636485695206,0.4375,3.3750,
34.106684,-117.71237616666667,3133000,279.7152709705881,0.4375,3.5000,
34.106684,-117.71237616666667,3133000,279.992579050804,0.4375,3.5000,
34.106684,-117.71237616666667,3133000,278.7785337635331,0.5000,3.4375,
34.106684,-117.71237616666667,3133000,276.4541998920297,0.5000,3.3750,
34.106684,-117.71237616666667,3133000,276.93726417632763,0.5000,3.3750,
34.106684,-117.71237616666667,3133000,279.9492100506325,0.5000,3.1875,
34.106684,-117.71237616666667,3133000,277.4670606609636,0.5000,3.3125,
34.106684,-117.71237616666667,3133000,279.2493893575387,0.5000,3.3750,
34.106684,-117.71237616666667,3133000,278.37584474034156,0.5000,3.3125,
34.106684,-117.71237616666667,3133000,277.2780082102189,0.5000,3.6250,
34.106684,-117.71237616666667,3133000,277.268224489098,0.4375,3.7500,
34.106684,-117.71237616666667,3133000,281.3745664165913,0.6250,3.3125,
34.106684,-117.71237616666667,3133000,279.7578295055662,0.6875,3.6250,
34.106684,-117.71237616666667,3133000,278.41176850987915,0.7500,3.2500,
34.106684,-117.71237616666667,3133000,275.9164616297752,0.7500,3.5000,
34.106684,-117.71237616666667,3133000,280.0979740637574,0.8125,3.3125,
34.106684,-117.71237616666667,3133000,278.1649591099572,0.7500,3.4375,
34.106684,-117.71237616666667,3133000,279.29049237748677,0.7500,3.5000,
34.106684,-117.71237616666667,3133000,278.3051362779122,0.6250,3.3750,
34.106684,-117.71237616666667,3133000,277.67469802634525,0.6875,3.6250,
34.106684,-117.71237616666667,3133000,279.8649930323628,0.7500,3.6875,
34.106684,-117.71237616666667,3133000,280.8572908408555,0.7500,3.3750,
34.106684,-117.71237616666667,3133000,279.1183582032611,0.6250,3.4375,
34.106684,-117.71237616666667,3133000,280.13531594104415,0.5625,3.5625,
34.106684,-117.71237616666667,3133000,277.9256085781715,0.5000,3.5625,
34.106684,-117.71237616666667,3133000,278.8541125147301,0.5000,3.3750,
34.106684,-117.71237616666667,3133000,279.5537810794119,0.4375,3.4375,
34.106684,-117.71237616666667,3133000,279.7596797109809,0.4375,3.6250,
34.106684,-117.71237616666667,3133000,280.2175619981888,0.3750,3.5625,
34.106684,-117.71237616666667,3133000,277.9452003466265,0.3750,3.3750,
34.106684,-117.71237616666667,3133000,279.05461439537953,0.3750,3.3125,
34.106684,-117.71237616666667,3133000,277.477569174529,0.4375,3.5000,
34.106684,-117.71237616666667,3133000,279.5893771681035,0.4375,3.2500,
34.106684,-117.71237616666667,3133000,278.5807073477506,0.4375,3.1250,
34.1066935,-117.7123775,3134000,277.69029025805185,0.4375,3.1250,
34.1066935,-117.7123775,3134000,277.9613469085257,0.4375,3.1250,
34.1066935,-117.7123775,3134000,277.61543006463853,0.4375,3.1250,
34.1066935,-117.7123775,3134000,277.9199103512285,0.4375,3.1250,
34.1066935,-117.7123775,3134000,281.70317222484255,0.4375,3.3750,
34.1066935,-117.7123775,3134000,279.2234497573386,0.5000,3.0000,
34.1066935,-117.7123775,3134000,279.63760832545904,0.5000,2.8750,
34.1066935,-117.7123775,3134000,284.1592571426024,0.5000,3.0625,
34.1066935,-117.7123775,3134000,279.4684606272481,0.5000,2.7500,
34.1066935,-117.7123775,3134000,282.7521564665501,0.5625,2.7500,
34.1066935,-117.7123775,3134000,279.4186841556825,0.5000,2.6250,
34.1066935,-117.7123775,3134000,284.21842307224983,0.4375,2.5625,
34.1066935,-117.7123775,3134000,282.12601141786536,0.4375,2.5000,
34.1066935,-117.7123775,3134000,280.41162269576716,0.3750,2.3750,
34.1066935,-117.7123775,3134000,280.43896726696835,0.3750,2.3125,
34.1066935,-117.7123775,3134000,281.1665702088451,0.3750,2.4375,
34.1066935,-117.7123775,3134000,282.31926782809705,0.3125,2.3750,
34.1066935,-117.7123775,3134000,280.8619045339975,0.3750,2.2500,
34.1066935,-117.7123775,3134000,277.5644225074641,0.3750,2.6250,
34.1066935,-117.7123775,3134000,282.07038959033366,0.4375,2.3125,
34.1066935,-117.7123775,3134000,280.76165912617785,0.3750,2.3750,
34.1066935,-117.7123775,3134000,280.5176761508742,0.4375,2.1875,
34.1066935,-117.7123775,3134000,278.65907398183265,0.5000,2.0625,
34.1066935,-117.7123775,3134000,279.7121940579897,0.5625,2.3125,
34.1066935,-117.7123775,3134000,280.45362383930706,0.5000,2.2500,
34.1066935,-117.7123775,3134000,278.0921100208561,0.5625,2.3125,
34.1066935,-117.7123775,3134000,278.4916220092023,0.5625,2.0625,
34.1066935,-117.7123775,3134000,277.8499377924809,0.5000,2.3125,
34.1066935,-117.7123775,3134000,279.39507570522983,0.5000,3.0000,
34.1066935,-117.7123775,3134000,282.7266068692344,0.5000,2.1875,
34.1066935,-117.7123775,3134000,277.91069202852054,0.5000,2.1875,
34.1066935,-117.7123775,3134000,279.4994611815915,0.5000,2.4375,
34.1066935,-117.7123775,3134000,276.9881523587301,0.5625,2.1875,
34.1066935,-117.7123775,3134000,275.45741272622695,0.5625,2.2500,
34.1066935,-117.7123775,3134000,279.9126163287672,0.5625,2.2500,
34.1066935,-117.7123775,3134000,278.7296351176167,0.5625,2.4375,
34.1066935,-117.7123775,3134000,278.69738606762974,0.5625,2.4375,
34.1066935,-117.7123775,3134000,278.445347155901,0.5625,2.2500,
34.1066935,-117.7123775,3134000,279.24623991909664,0.5000,2.4375,
34.1066935,-117.7123775,3134000,277.7332164372608,0.5000,2.4375,
34.10670666666667,-117.7123785,3135000,277.10847231564264,0.5000,2.5625,
34.10670666666667,-117.7123785,3135000,278.88187104623285,0.5625,2.6250,
34.10670666666667,-117.7123785,3135000,278.9314591618645,0.6250,2.5000,
34.10670666666667,-117.7123785,3135000,281.1636791978449,0.7500,2.8125,
34.10670666666667,-117.7123785,3135000,279.6542272496649,0.8125,2.6250,
34.10670666666667,-117.7123785,3135000,280.77509882281333,0.7500,2.5625,
34.10670666666667,-117.7123785,3135000,278.02806062124523,0.7500,2.5625,
34.10670666666667,-117.7123785,3135000,280.56596427883824,0.7500,2.5625,
34.10670666666667,-117.7123785,3135000,279.82945350026307,0.7500,2.8125,
34.10670666666667,-117.7123785,3135000,280.3743107497296,0.7500,2.6875,
34.10670666666667,-117.7123785,3135000,278.54907960813307,0.6875,2.7500,
34.10670666666667,-117.7123785,3135000,280.75424327333553,0.7500,2.4375,
34.10670666666667,-117.7123785,3135000,280.45150681874475,0.6875,2.4375,
34.10670666666667,-117.7123785,3135000,280.19941218128383,0.7500,2.4375,
34.10670666666667,-117.7123785,3135000,282.19732364703054,0.8125,2.4375,
34.10670666666667,-117.7123785,3135000,281.8520178252613,0.7500,2.3750,
34.10670666666667,-117.7123785,3135000,281.64649924611285,0.8125,2.5625,
34.10670666666667,-117.7123785,3135000,281.4970126770238,0.8125,2.3125,
34.10670666666667,-117.7123785,3135000,281.97291667251125,0.8750,2.5625,
34.10670666666667,-117.7123785,3135000,281.61187281531613,0.9375,2.5000,
34.10670666666667,-117.7123785,3135000,281.4216802827277,0.9375,2.4375,
34.10670666666667,-117.7123785,3135000,280.3026587701065,1.0000,2.5000,
34.10670666666667,-117.7123785,3135000,283.12824391826507,1.0000,2.6875,
34.10670666666667,-117.7123785,3135000,282.84331267926325,1.0625,2.8750,
34.10670666666667,-117.7123785,3135000,280.79541383947185,1.1250,2.8125,
34.10670666666667,-117.7123785,3135000,282.09475246464376,1.1875,2.6875,
34.10670666666667,-117.7123785,3135000,279.855790990772,1.1875,2.7500,
34.10670666666667,-117.7123785,3135000,281.6192593051062,1.1250,3.3750,
34.10670666666667,-117.7123785,3135000,281.908996116103,1.1250,3.0625,
34.10670666666667,-117.7123785,3135000,279.1097932744824,1.0625,2.9375,
34.10670666666667,-117.7123785,3135000,279.1736620766417,1.0000,2.9375,
34.10670666666667,-117.7123785,3135000,279.2694975145022,0.8750,3.1250,
34.10670666666667,-117.7123785,3135000,280.7528798642818,0.8750,2.6875,
34.10670666666667,-117.7123785,3135000,278.43873952401395,0.8125,2.9375,
34.10670666666667,-117.7123785,3135000,280.6780161195343,0.8125,2.8125,
34.10670666666667,-117.7123785,3135000,280.6923359798425,0.8125,2.7500,
34.10670666666667,-117.7123785,3135000,280.91131348219517,0.7500,3.0625,
34.10670666666667,-117.7123785,3135000,280.5831964196434,0.8125,3.3125,
34.10670666666667,-117.7123785,3135000,280.82829945681874,0.8125,3.1250,
34.10670666666667,-117.7123785,3135000,280.012032015818,0.8750,3.3125,
34.10671966666666,-117.71237733333334,3136000,279.2495309635085,0.8750,2.9375,
34.10671966666666,-117.71237733333334,3136000,280.78939474669255,0.8750,2.9375,
34.10671966666666,-117.71237733333334,3136000,278.22731386294674,0.9375,2.9375,
34.10671966666666,-117.71237733333334,3136000,278.17350099701196,0.9375,3.0625,
34.10671966666666,-117.71237733333334,3136000,280.26065897168087,1.0000,3.1250,
34.10671966666666,-117.71237733333334,3136000,281.54990275331943,1.0000,3.0625,
34.10671966666666,-117.71237733333334,3136000,280.06806751381623,1.0625,3.2500,
34.10671966666666,-117.71237733333334,3136000,280.00003638415933,1.0625,3.4375,
34.10671966666666,-117.71237733333334,3136000,282.7591838895894,1.0625,3.4375,
34.10671966666666,-117.71237733333334,3136000,279.89113533745683,1.0000,3.5000,
34.10671966666666,-117.71237733333334,3136000,280.7792988854317,1.0625,3.3750,
34.10671966666666,-117.71237733333334,3136000,280.9630176684741,1.0000,3.8750,
34.10671966666666,-117.71237733333334,3136000,281.3049651704032,1.0625,3.4375,
34.10671966666666,-117.71237733333334,3136000,283.16386854704024,1.0000,3.8125,
34.10671966666666,-117.71237733333334,3136000,282.3519689646008,1.0000,3.6875,
34.10671966666666,-117.71237733333334,3136000,279.65193981168886,1.0625,4.4375,
34.10671966666666,-117.71237733333334,3136000,280.1843875014679,1.0625,3.4375,
34.10671966666666,-117.71237733333334,3136000,279.3055121511178,1.0625,3.5000,
34.10671966666666,-117.71237733333334,3136000,279.9716885331445,1.0000,3.7500,
34.10671966666666,-117.71237733333334,3136000,279.0549627453802,1.0625,3.4375,
34.10671966666666,-117.71237733333334,3136000,278.37829342452414,1.1250,3.8125,
34.10671966666666,-117.71237733333334,3136000,282.20430843510644,1.0625,3.5625,
34.10671966666666,-117.71237733333334,3136000,279.4944093719987,1.1250,3.6250,
34.10671966666666,-117.71237733333334,3136000,280.67342340316395,1.1875,3.6250,
34.10671966666666,-117.71237733333334,3136000,280.48394988068003,1.1875,3.6250,
34.10671966666666,-117.71237733333334,3136000,279.0720626423192,1.1875,3.6250,
34.10671966666666,-117.71237733333334,3136000,280.892338540692,1.1875,3.7500,
34.10671966666666,-117.71237733333334,3136000,281.2953230537445,1.1250,3.8125,
34.10671966666666,-117.71237733333334,3136000,282.24287045507344,1.1250,4.0000,
34.10671966666666,-117.71237733333334,3136000,280.2484331806422,1.1250,4.1250,
34.10671966666666,-117.71237733333334,3136000,279.200365754333,1.0625,3.7500,
34.10671966666666,-117.71237733333334,3136000,280.6883788113489,1.0625,4.0000,
34.10671966666666,-117.71237733333334,3136000,281.73339006877586,1.0625,3.7500,
34.10671966666666,-117.71237733333334,3136000,277.5729047438649,1.0625,3.8125,
34.10671966666666,-117.71237733333334,3136000,280.3271121469471,1.0625,3.9375,
34.10671966666666,-117.71237733333334,3136000,280.0769674281289,1.0625,3.9375,
34.10671966666666,-117.71237733333334,3136000,277.9809286963673,1.0625,3.7500,
34.10671966666666,-117.71237733333334,3136000,279.1678650154371,1.1250,3.7500,
34.10671966666666,-117.71237733333334,3136000,280.8201513577807,1.1250,3.8125,
34.10673033333333,-117.71238016666666,3137000,279.8727832631648,1.0625,3.6250,
34.10673033333333,-117.71238016666666,3137000,280.62881779472605,1.1250,3.5625,
34.10673033333333,-117.71238016666666,3137000,280.1919307938922,1.1250,3.5625,
34.10673033333333,-117.71238016666666,3137000,276.8180670553156,1.1875,3.3125,
34.10673033333333,-117.71238016666666,3137000,278.23365144571744,1.1875,3.3125,
34.10673033333333,-117.71238016666666,3137000,277.65046929140226,1.1875,3.2500,
34.10673033333333,-117.71238016666666,3137000,279.0766540865869,1.2500,3.3750,
34.10673033333333,-117.71238016666666,3137000,280.1171001603416,1.2500,3.2500,
34.10673033333333,-117.71238016666666,3137000,281.4734050373213,1.1250,3.2500,
34.10673033333333,-117.71238016666666,3137000,281.1926940806418,1.1250,3.3125,
34.10673033333333,-117.71238016666666,3137000,282.4007521666532,1.1875,3.1250,
34.10673033333333,-117.71238016666666,3137000,280.0477357271618,1.1875,3.7500,
34.10673033333333,-117.71238016666666,3137000,280.00719939903524,1.3125,3.5625,
34.10673033333333,-117.71238016666666,3137000,282.1164603984424,1.1875,3.1250,
34.10673033333333,-117.71238016666666,3137000,279.3769943528482,1.1875,3.1250,
34.10673033333333,-117.71238016666666,3137000,279.05531600480697,1.1250,3.3750,
34.10673033333333,-117.71238016666666,3137000,276.94121812212643,1.2500,3.0625,
34.10673033333333,-117.71238016666666,3137000,280.4480486658791,1.1875,3.8125,
34.10673033333333,-117.71238016666666,3137000,281.6711440584122,1.0625,4.0000,
34.10673033333333,-117.71238016666666,3137000,280.0873912519295,1.2500,3.2500,
34.10673033333333,-117.71238016666666,3137000,279.1497145193025,1.1875,3.5625,
34.10673033333333,-117.71238016666666,3137000,279.5354775127753,1.2500,3.6875,
34.10673033333333,-117.71238016666666,3137000,277.5191817900495,1.3125,3.7500,
34.10673033333333,-117.71238016666666,3137000,278.5422403502896,1.3125,3.6875,
34.10673033333333,-117.71238016666666,3137000,281.1104361555533,1.2500,3.6875,
34.10673033333333,-117.71238016666666,3137000,283.0719110846087,1.3125,3.6250,
34.10673033333333,-117.71238016666666,3137000,278.47110815287965,1.3125,4.1250,
34.10673033333333,-117.71238016666666,3137000,280.557158346335,1.3750,3.7500,
34.10673033333333,-117.71238016666666,3137000,282.44645200068203,1.4375,3.6875,
34.10673033333333,-117.71238016666666,3137000,279.581296378705,1.3750,3.7500,
34.10673033333333,-117.71238016666666,3137000,280.56482280025057,1.1875,3.8125,
34.10673033333333,-117.71238016666666,3137000,279.94323462799457,1.4375,4.0625,
34.10673033333333,-117.71238016666666,3137000,279.8500002294834,1.4375,3.6250,
34.10673033333333,-117.71238016666666,3137000,281.3283933520431,1.5000,3.7500,
34.10673033333333,-117.71238016666666,3137000,280.51331268031515,1.5000,3.5625,
34.10673033333333,-117.71238016666666,3137000,279.46828319185965,1.5625,3.3125,
34.10673033333333,-117.71238016666666,3137000,281.84687959909706,1.5000,4.0625,
34.10673033333333,-117.71238016666666,3137000,281.38590675588443,1.5000,4.0000,
34.10673033333333,-117.71238016666666,3137000,280.5007955104494,1.5000,3.5000,
34.10673033333333,-117.71238016666666,3137000,281.3429648000225,1.5000,3.6875,
34.10673033333333,-117.71238016666666,3137000,280.69279810595253,1.4375,3.6875,
34.10673033333333,-117.71238016666666,3137000,282.31861540128784,1.4375,3.9375,
34.106741666666665,-117.71238116666666,3138000,279.7960810474109,1.5000,4.1250,
34.106741666666665,-117.71238116666666,3138000,279.57536841741285,1.5000,4.0000,
34.106741666666665,-117.71238116666666,3138000,282.6414251908245,1.5625,3.9375,
34.106741666666665,-117.71238116666666,3138000,281.6293425149645,1.5000,3.8125,
34.106741666666665,-117.71238116666666,3138000,284.27636161491364,1.5000,3.8750,
34.106741666666665,-117.71238116666666,3138000,280.71836947156976,1.5000,4.1250,
34.106741666666665,-117.71238116666666,3138000,283.1976110837809,1.5000,3.7500,
34.106741666666665,-117.71238116666666,3138000,281.527221978533,1.4375,3.9375,
34.106741666666665,-117.71238116666666,3138000,276.56104064010185,1.4375,3.9375,
34.106741666666665,-117.71238116666666,3138000,279.97086131489755,1.4375,4.2500,
34.106741666666665,-117.71238116666666,3138000,282.00580562860966,1.5000,4.0000,
34.106741666666665,-117.71238116666666,3138000,282.7187809773129,1.5000,4.0000,
34.106741666666665,-117.71238116666666,3138000,280.2316817791499,1.5000,4.1250,
34.106741666666665,-117.71238116666666,3138000,281.1853709447887,1.5000,4.0625,
34.106741666666665,-117.71238116666666,3138000,281.8688291181312,1.5625,3.8750,
34.106741666666665,-117.71238116666666,3138000,281.7089880427566,1.5625,3.8125,
34.106741666666665,-117.71238116666666,3138000,280.23922482051717,1.6250,3.9375,
34.106741666666665,-117.71238116666666,3138000,279.6458077443116,1.5625,4.0625,
34.106741666666665,-117.71238116666666,3138000,282.98763722786134,1.6250,4.0000,
34.106741666666665,-117.71238116666666,3138000,277.87520600118023,1.5625,3.8125,
34.106741666666665,-117.71238116666666,3138000,283.156433695093,1.5625,3.8750,
34.106741666666665,-117.71238116666666,3138000,282.6044184156849,1.5625,3.8750,
34.106741666666665,-117.71238116666666,3138000,279.7976518111251,1.5625,3.6875,
34.106741666666665,-117.71238116666666,3138000,279.14263308859427,1.6250,3.8750,
34.106741666666665,-117.71238116666666,3138000,281.941533906039,1.5625,4.3125,
34.106741666666665,-117.71238116666666,3138000,280.9113746083467,1.7500,3.8125,
34.106741666666665,-117.71238116666666,3138000,280.63357598836956,1.8125,3.5000,
34.106741666666665,-117.71238116666666,3138000,281.9709930437059,1.7500,3.5625,
34.106741666666665,-117.71238116666666,3138000,283.4967699335366,1.7500,3.3750,
34.106741666666665,-117.71238116666666,3138000,282.4677429182591,1.7500,3.5625,
34.106741666666665,-117.71238116666666,3138000,282.83296011302036,1.8125,3.5000,
34.106741666666665,-117.71238116666666,3138000,280.5230048234837,1.7500,3.4375,
34.106741666666665,-117.71238116666666,3138000,282.75797301237026,1.6875,4.0000,
34.106741666666665,-117.71238116666666,3138000,281.271089707446,1.7500,4.0625,
34.106741666666665,-117.71238116666666,3138000,279.92120000312514,1.7500,4.4375,
34.106741666666665,-117.71238116666666,3138000,279.4809915809626,1.6250,4.0625,
34.106741666666665,-117.71238116666666,3138000,280.349268550847,1.6250,3.6875,
34.106741666666665,-117.71238116666666,3138000,284.6825797737429,1.6875,3.4375,
34.106741666666665,-117.71238116666666,3138000,278.4700690967577,1.6250,4.3125,
34.106741666666665,-117.71238116666666,3138000,281.5034545116064,1.6250,3.6250,
34.106754,-117.71238216666667,3139000,281.87086278275035,1.6250,3.6250,
34.106754,-117.71238216666667,3139000,281.6686934461836,1.6875,3.6875,
34.106754,-117.71238216666667,3139000,281.64204627031586,1.6875,3.9375,
34.106754,-117.71238216666667,3139000,281.84694727492433,1.6875,3.8125,
34.106754,-117.71238216666667,3139000,281.2836298787074,1.7500,4.0000,
34.106754,-117.71238216666667,3139000,280.882063559847,1.6875,3.8750,
34.106754,-117.71238216666667,3139000,279.7995326109817,1.6875,3.8750,
34.106754,-117.71238216666667,3139000,279.36287830493507,1.5625,3.7500,
34.106754,-117.71238216666667,3139000,280.0554705833896,1.6250,4.0000,
34.106754,-117.71238216666667,3139000,279.65265177901256,1.5000,4.0000,
34.106754,-117.71238216666667,3139000,279.82547340418046,1.5625,3.9375,
34.106754,-117.71238216666667,3139000,278.25906200017744,1.5625,3.8750,
34.106754,-117.71238216666667,3139000,277.5337752971677,1.5000,3.9375,
34.106754,-117.71238216666667,3139000,281.87395095260945,1.5625,3.9375,
34.106754,-117.71238216666667,3139000,279.38265066597114,1.5625,4.2500,
34.106754,-117.71238216666667,3139000,278.99919008667575,1.6250,3.8750,
34.106754,-117.71238216666667,3139000,278.5118186413804,1.5625,3.8125,
34.106754,-117.71238216666667,3139000,278.98782976993425,1.5625,3.9375,
34.106754,-117.71238216666667,3139000,280.4325409787085,1.6250,3.9375,
34.106754,-117.71238216666667,3139000,278.36760364936106,1.6250,3.6875,
34.106754,-117.71238216666667,3139000,280.9497793058339,1.5625,3.8750,
34.106754,-117.71238216666667,3139000,280.8560827105176,1.6250,3.9375,
34.106754,-117.71238216666667,3139000,280.843275347004,1.5625,3.6250,
34.106754,-117.71238216666667,3139000,280.70775723232305,1.5625,3.6250,
34.106754,-117.71238216666667,3139000,281.5597965270822,1.6250,3.5625,
34.106754,-117.71238216666667,3139000,279.28614161732753,1.5625,3.7500,
34.106754,-117.71238216666667,3139000,282.9491262940867,1.6250,3.6250,
34.106754,-117.71238216666667,3139000,279.67012689362855,1.5625,3.6875,
34.106754,-117.71238216666667,3139000,280.5790474664227,1.5625,3.9375,
34.106754,-117.71238216666667,3139000,279.21395058628855,1.5625,4.2500,
34.106754,-117.71238216666667,3139000,281.34106552683306,1.5625,3.9375,
34.106754,-117.71238216666667,3139000,280.1918323079333,1.5000,4.0000,
34.106754,-117.71238216666667,3139000,279.3067768957919,1.5625,3.9375,
34.106754,-117.71238216666667,3139000,280.02658912588447,1.5000,4.0625,
34.106754,-117.71238216666667,3139000,282.49564391169383,1.5000,4.1250,
34.106754,-117.71238216666667,3139000,281.7997208858387,1.5000,4.3125,
34.106754,-117.71238216666667,3139000,282.1991002332944,1.5000,4.3125,
34.106754,-117.71238216666667,3139000,280.1017730486078,1.5000,4.0625,
34.106754,-117.71238216666667,3139000,280.86361656043323,1.5625,4.2500,
34.106754,-117.71238216666667,3139000,279.2995335475043,1.5625,4.3125,
34.106765,-117.71238066666666,3140000,280.6382611685808,1.5625,5.0625,
34.106765,-117.71238066666666,3140000,281.2634844407355,1.5625,4.2500,
34.106765,-117.71238066666666,3140000,278.23208737123787,1.6250,4.1250,
34.106765,-117.71238066666666,3140000,281.33395616899566,1.5625,4.2500,
34.106765,-117.71238066666666,3140000,279.41899670414364,1.5625,4.1875,
34.106765,-117.71238066666666,3140000,279.25124797693616,1.5000,4.3750,
34.106765,-117.71238066666666,3140000,279.276289877099,1.5000,4.3750,
34.106765,-117.71238066666666,3140000,281.99504474014736,1.4375,4.3750,
34.106765,-117.71238066666666,3140000,279.4055880439032,1.4375,4.3750,
34.106765,-117.71238066666666,3140000,279.78497962394727,1.4375,4.4375,
34.106765,-117.71238066666666,3140000,282.00507824914075,1.3125,4.1875,
34.106765,-117.71238066666666,3140000,279.8804341360492,1.3750,4.3125,
34.106765,-117.71238066666666,3140000,279.02143209134965,1.3750,4.3125,
34.106765,-117.71238066666666,3140000,281.4057262921119,1.2500,4.8125,
34.106765,-117.71238066666666,3140000,281.2517284913363,1.3750,4.5000,
34.106765,-117.71238066666666,3140000,279.72539150356965,1.4375,4.4375,
34.106765,-117.71238066666666,3140000,280.06829346842005,1.4375,4.7500,
34.106765,-117.71238066666666,3140000,278.6196634011917,1.4375,4.4375,
34.106765,-117.71238066666666,3140000,280.80541229527194,1.5000,4.4375,
34.106765,-117.71238066666666,3140000,279.3852411203982,1.4375,4.4375,
34.106765,-117.71238066666666,3140000,279.36898730218206,1.4375,4.6250,
34.106765,-117.71238066666666,3140000,280.25529207286536,1.5000,4.5625,
34.106765,-117.71238066666666,3140000,280.86944413377023,1.5625,4.4375,
34.106765,-117.71238066666666,3140000,281.474571216356,1.5000,4.5625,
34.106765,-117.71238066666666,3140000,279.1146654314632,1.4375,4.5000,
34.106765,-117.71238066666666,3140000,280.5351424997375,1.4375,4.5625,
34.106765,-117.71238066666666,3140000,284.5955963390718,1.5000,4.5625,
34.106765,-117.71238066666666,3140000,282.67983057062816,1.4375,4.6875,
34.106765,-117.71238066666666,3140000,279.46827665790534,1.4375,4.8125,
34.106765,-117.71238066666666,3140000,282.2964040035712,1.5000,4.8750,
34.106765,-117.71238066666666,3140000,282.23161950936696,1.5000,4.5000,
34.106765,-117.71238066666666,3140000,280.9046439984535,1.5000,5.2500,
34.106765,-117.71238066666666,3140000,280.160890581382,1.3125,5.0000,
34.106765,-117.71238066666666,3140000,281.1075078674021,1.4375,4.8750,
34.106765,-117.71238066666666,3140000,279.2246173762169,1.4375,4.8125,
34.106765,-117.71238066666666,3140000,281.65111447191316,1.3750,4.8750,
34.106765,-117.71238066666666,3140000,281.234548083818,1.4375,5.4375,
34.106765,-117.71238066666666,3140000,282.1084417831794,1.5000,4.7500,
34.106765,-117.71238066666666,3140000,279.31104781066904,1.4375,4.8750,
34.10677616666667,-117.71238283333334,3141000,281.5141370288288,1.4375,4.8125,
